{
"type": "FeatureCollection",
"name": "Pharmacy_Locations",
"crs": { "type": "name", "properties": { "name": "urn:ogc:def:crs:OGC:1.3:CRS84" } },
"features": [
{ "type": "Feature", "properties": { "NAME": "EMERGING LIFE LLC DBA/ HEALING TOUCH PHARMACY #4", "LICENSE_NUMBER": "RX2200170", "FACTYPE": null, "ADDRESS": "2916 MARTIN LUTHER KING JR. AVENUE SE", "ADDRESSLINE2": null, "CITY": "Washington", "STATE": "DC", "ZIPCODE": "20032", "PHONE": "202-758-0955", "WARD": "Ward 8", "ANC": "ANC 8C", "SSL": "5951    0031", "SEASONAL": null, "H1N1": null, "XCOORD": 400280.11, "YCOORD": 130854.4, "MAR_ID": "43369", "GIS_ID": null, "GIS_LAST_MOD_DTTM": "2026-01-03T13:55:13Z", "SE_ANNO_CAD_DATA": null, "GLOBALID": "{477D2D03-DFFD-1593-E063-792F520A6D48}", "CREATED": null, "EDITED": null, "OBJECTID": 9880 }, "geometry": { "type": "Point", "coordinates": [ -76.996775582722137, 38.84549878525528 ] } },
{ "type": "Feature", "properties": { "NAME": "GIANT PHARMACY #2381", "LICENSE_NUMBER": "RX0000067", "FACTYPE": null, "ADDRESS": "300 H STREET NE", "ADDRESSLINE2": null, "CITY": "Washington", "STATE": "DC", "ZIPCODE": "20002", "PHONE": "717-240-7541", "WARD": "Ward 6", "ANC": "ANC 6C", "SSL": "0776    0054,0776    2001,0776    2002,0776    2003", "SEASONAL": null, "H1N1": null, "XCOORD": 399857.33, "YCOORD": 136953.04, "MAR_ID": "308511", "GIS_ID": null, "GIS_LAST_MOD_DTTM": "2026-01-03T13:55:13Z", "SE_ANNO_CAD_DATA": null, "GLOBALID": "{477D2D03-DFFE-1593-E063-792F520A6D48}", "CREATED": null, "EDITED": null, "OBJECTID": 10393 }, "geometry": { "type": "Point", "coordinates": [ -77.001647021263608, 38.900437822269424 ] } },
{ "type": "Feature", "properties": { "NAME": "HEALING TOUCH PHARMACY #3", "LICENSE_NUMBER": "RX2100163", "FACTYPE": null, "ADDRESS": "3415 23RD STREET, SE", "ADDRESSLINE2": null, "CITY": "Washington", "STATE": "DC", "ZIPCODE": "20020", "PHONE": "202-506-1948", "WARD": "Ward 8", "ANC": "ANC 8E", "SSL": "5897    0805,5897    0035", "SEASONAL": null, "H1N1": null, "XCOORD": 402493.07, "YCOORD": 131081.37, "MAR_ID": "278386", "GIS_ID": null, "GIS_LAST_MOD_DTTM": "2026-01-03T13:55:13Z", "SE_ANNO_CAD_DATA": null, "GLOBALID": "{477D2D03-DFFF-1593-E063-792F520A6D48}", "CREATED": null, "EDITED": null, "OBJECTID": 10394 }, "geometry": { "type": "Point", "coordinates": [ -76.971282802764392, 38.847539944264575 ] } },
{ "type": "Feature", "properties": { "NAME": "35 K STREET PHARMACY", "LICENSE_NUMBER": "RX0000056", "FACTYPE": null, "ADDRESS": "35 K ST NE", "ADDRESSLINE2": "35 K ST NE", "CITY": "Washington", "STATE": "DC", "ZIPCODE": "20002", "PHONE": "202-442-4954", "WARD": "Ward 6", "ANC": "ANC 6E", "SSL": "0675    0838,0675    0291", "SEASONAL": null, "H1N1": null, "XCOORD": 399393.36, "YCOORD": 137139.19, "MAR_ID": "287960", "GIS_ID": null, "GIS_LAST_MOD_DTTM": "2026-01-03T13:55:13Z", "SE_ANNO_CAD_DATA": null, "GLOBALID": "{477D2D03-E000-1593-E063-792F520A6D48}", "CREATED": null, "EDITED": null, "OBJECTID": 10395 }, "geometry": { "type": "Point", "coordinates": [ -77.006995955299928, 38.902114530200684 ] } },
{ "type": "Feature", "properties": { "NAME": "SEAT PLEASANT DRUGS", "LICENSE_NUMBER": "RX1200016", "FACTYPE": null, "ADDRESS": "354 EASTERN AVE NE", "ADDRESSLINE2": null, "CITY": "Washington", "STATE": "DC", "ZIPCODE": "20019", "PHONE": "202-396-3400", "WARD": "Ward 7", "ANC": "ANC 7C", "SSL": "5268    0807,5268    0030", "SEASONAL": null, "H1N1": null, "XCOORD": 407698.63, "YCOORD": 136243.83, "MAR_ID": "33319", "GIS_ID": null, "GIS_LAST_MOD_DTTM": "2026-01-03T13:55:13Z", "SE_ANNO_CAD_DATA": null, "GLOBALID": "{477D2D03-E001-1593-E063-792F520A6D48}", "CREATED": null, "EDITED": null, "OBJECTID": 10396 }, "geometry": { "type": "Point", "coordinates": [ -76.911258405269209, 38.894015305395854 ] } },
{ "type": "Feature", "properties": { "NAME": "DAILY CARE PHARMACY 2", "LICENSE_NUMBER": "RX240000123", "FACTYPE": null, "ADDRESS": "3845 PENNSYLVANIA AVENUE SE", "ADDRESSLINE2": null, "CITY": "Washington", "STATE": "DC", "ZIPCODE": "20020", "PHONE": "202-885-9474", "WARD": "Ward 7", "ANC": "ANC 7B", "SSL": "5673    0803", "SEASONAL": null, "H1N1": null, "XCOORD": 404244.8, "YCOORD": 133019.68, "MAR_ID": "278430", "GIS_ID": null, "GIS_LAST_MOD_DTTM": "2026-01-03T13:55:13Z", "SE_ANNO_CAD_DATA": null, "GLOBALID": "{477D2D03-E002-1593-E063-792F520A6D48}", "CREATED": null, "EDITED": null, "OBJECTID": 10397 }, "geometry": { "type": "Point", "coordinates": [ -76.951091397884994, 38.86499436031793 ] } },
{ "type": "Feature", "properties": { "NAME": "HARRIS TEETER PHARMACY #383", "LICENSE_NUMBER": "RX0000087", "FACTYPE": null, "ADDRESS": "401 M STREET SE", "ADDRESSLINE2": null, "CITY": "Washington", "STATE": "DC", "ZIPCODE": "20003", "PHONE": "513-762-1090", "WARD": "Ward 8", "ANC": "ANC 8F", "SSL": "0771    0811,0771    0012", "SEASONAL": null, "H1N1": null, "XCOORD": 399991.82, "YCOORD": 134265.15, "MAR_ID": "309432", "GIS_ID": null, "GIS_LAST_MOD_DTTM": "2026-01-03T13:55:13Z", "SE_ANNO_CAD_DATA": null, "GLOBALID": "{477D2D03-E003-1593-E063-792F520A6D48}", "CREATED": null, "EDITED": null, "OBJECTID": 10398 }, "geometry": { "type": "Point", "coordinates": [ -77.00009655130431, 38.876224302397269 ] } },
{ "type": "Feature", "properties": { "NAME": "PSYCHIATRIC INSTITUTE OF WASHINGTON", "LICENSE_NUMBER": "RX240000122", "FACTYPE": null, "ADDRESS": "4228 WISCONSIN AVENUE NW", "ADDRESSLINE2": "4TH FLOOR", "CITY": "Washington", "STATE": "DC", "ZIPCODE": "20016", "PHONE": "202-885-5657", "WARD": "Ward 3", "ANC": "ANC 3A", "SSL": "1786    0008", "SEASONAL": null, "H1N1": null, "XCOORD": 393241.4, "YCOORD": 141781.75, "MAR_ID": "222976", "GIS_ID": null, "GIS_LAST_MOD_DTTM": "2026-01-03T13:55:13Z", "SE_ANNO_CAD_DATA": null, "GLOBALID": "{477D2D03-E004-1593-E063-792F520A6D48}", "CREATED": null, "EDITED": null, "OBJECTID": 10399 }, "geometry": { "type": "Point", "coordinates": [ -77.077964745948094, 38.943910415360868 ] } },
{ "type": "Feature", "properties": { "NAME": "CVS/PHARMACY #1362", "LICENSE_NUMBER": "RX1000395", "FACTYPE": null, "ADDRESS": "4309 CONNECTICUT AVE NW", "ADDRESSLINE2": null, "CITY": "Washington", "STATE": "DC", "ZIPCODE": "20008", "PHONE": "401-765-1500", "WARD": "Ward 3", "ANC": "ANC 3F", "SSL": "2049    0805,2049    0006", "SEASONAL": null, "H1N1": null, "XCOORD": 394493.14, "YCOORD": 141894.2, "MAR_ID": "302109", "GIS_ID": null, "GIS_LAST_MOD_DTTM": "2026-01-03T13:55:13Z", "SE_ANNO_CAD_DATA": null, "GLOBALID": "{477D2D03-E005-1593-E063-792F520A6D48}", "CREATED": null, "EDITED": null, "OBJECTID": 10400 }, "geometry": { "type": "Point", "coordinates": [ -77.063526460904484, 38.944932135620633 ] } },
{ "type": "Feature", "properties": { "NAME": "CVS/PHARMACY #2104", "LICENSE_NUMBER": "RX1000401", "FACTYPE": null, "ADDRESS": "5013 CONNECTICUT AVE NW", "ADDRESSLINE2": null, "CITY": "Washington", "STATE": "DC", "ZIPCODE": "20008", "PHONE": "401-765-1500", "WARD": "Ward 3", "ANC": "ANC 3F", "SSL": "1986    0008", "SEASONAL": null, "H1N1": null, "XCOORD": 393974.82, "YCOORD": 143053.3, "MAR_ID": "262738", "GIS_ID": null, "GIS_LAST_MOD_DTTM": "2026-01-03T13:55:13Z", "SE_ANNO_CAD_DATA": null, "GLOBALID": "{477D2D03-E006-1593-E063-792F520A6D48}", "CREATED": null, "EDITED": null, "OBJECTID": 10401 }, "geometry": { "type": "Point", "coordinates": [ -77.069515701446974, 38.955370222977024 ] } },
{ "type": "Feature", "properties": { "NAME": "RODMAN'S DISCOUNT DRUGS", "LICENSE_NUMBER": "RX8800103", "FACTYPE": null, "ADDRESS": "5100 WISCONSIN AVE NW", "ADDRESSLINE2": null, "CITY": "Washington", "STATE": "DC", "ZIPCODE": "20016", "PHONE": "301-942-9210", "WARD": "Ward 3", "ANC": "ANC 3E", "SSL": "1656    0009", "SEASONAL": null, "H1N1": null, "XCOORD": 392731.38, "YCOORD": 143156.4, "MAR_ID": "265883", "GIS_ID": null, "GIS_LAST_MOD_DTTM": "2026-01-03T13:55:13Z", "SE_ANNO_CAD_DATA": null, "GLOBALID": "{477D2D03-E007-1593-E063-792F520A6D48}", "CREATED": null, "EDITED": null, "OBJECTID": 10402 }, "geometry": { "type": "Point", "coordinates": [ -77.083862542484056, 38.956289564745738 ] } },
{ "type": "Feature", "properties": { "NAME": "CVS/PHARMACY #1346", "LICENSE_NUMBER": "RX1000386", "FACTYPE": null, "ADDRESS": "5550 CONNECTICUT AVE NW", "ADDRESSLINE2": null, "CITY": "Washington", "STATE": "DC", "ZIPCODE": "20015", "PHONE": "401-765-1500", "WARD": "Ward 3", "ANC": "ANC 3/4G", "SSL": "1859    0093", "SEASONAL": null, "H1N1": null, "XCOORD": 393423.73, "YCOORD": 144091.34, "MAR_ID": "263843", "GIS_ID": null, "GIS_LAST_MOD_DTTM": "2026-01-03T13:55:13Z", "SE_ANNO_CAD_DATA": null, "GLOBALID": "{477D2D03-E008-1593-E063-792F520A6D48}", "CREATED": null, "EDITED": null, "OBJECTID": 10403 }, "geometry": { "type": "Point", "coordinates": [ -77.075883662817319, 38.964717199030687 ] } },
{ "type": "Feature", "properties": { "NAME": "CVS/PHARMACY #1338", "LICENSE_NUMBER": "RX1000381", "FACTYPE": null, "ADDRESS": "661 PENNSYLVANIA AVE SE", "ADDRESSLINE2": null, "CITY": "Washington", "STATE": "DC", "ZIPCODE": "20003", "PHONE": "401-765-1500", "WARD": "Ward 6", "ANC": "ANC 6B", "SSL": "0874    0052", "SEASONAL": null, "H1N1": null, "XCOORD": 400305.52, "YCOORD": 135181.3, "MAR_ID": "280104", "GIS_ID": null, "GIS_LAST_MOD_DTTM": "2026-01-03T13:55:13Z", "SE_ANNO_CAD_DATA": null, "GLOBALID": "{477D2D03-E009-1593-E063-792F520A6D48}", "CREATED": null, "EDITED": null, "OBJECTID": 10404 }, "geometry": { "type": "Point", "coordinates": [ -76.996480954655723, 38.884477287321921 ] } },
{ "type": "Feature", "properties": { "NAME": "KAISER PERMANENTE CAPITOL HILL INFUSION PHARMACY", "LICENSE_NUMBER": "RX1000426", "FACTYPE": null, "ADDRESS": "700 2ND ST NE STE 603", "ADDRESSLINE2": "STE 603", "CITY": "Washington", "STATE": "DC", "ZIPCODE": "20002", "PHONE": "443-280-7365", "WARD": "Ward 6", "ANC": "ANC 6C", "SSL": "0720    0826,0720    0180", "SEASONAL": null, "H1N1": null, "XCOORD": 399657.88, "YCOORD": 136821.81, "MAR_ID": "307352", "GIS_ID": null, "GIS_LAST_MOD_DTTM": "2026-01-03T13:55:13Z", "SE_ANNO_CAD_DATA": null, "GLOBALID": "{477D2D03-E00A-1593-E063-792F520A6D48}", "CREATED": null, "EDITED": null, "OBJECTID": 10405 }, "geometry": { "type": "Point", "coordinates": [ -77.003946268467644, 38.899255600032625 ] } },
{ "type": "Feature", "properties": { "NAME": "UNITY HEALTH CARE, INC DBA UNITY HEALTH PHARMACY", "LICENSE_NUMBER": "RX0000113", "FACTYPE": null, "ADDRESS": "765 KENILWORTH TERRACE NE", "ADDRESSLINE2": null, "CITY": "Washington", "STATE": "DC", "ZIPCODE": "20019", "PHONE": "806-324-5400", "WARD": "Ward 7", "ANC": "ANC 7D", "SSL": "5055    0027", "SEASONAL": null, "H1N1": null, "XCOORD": 404557.27, "YCOORD": 136953.28, "MAR_ID": "310407", "GIS_ID": null, "GIS_LAST_MOD_DTTM": "2026-01-03T13:55:13Z", "SE_ANNO_CAD_DATA": null, "GLOBALID": "{477D2D03-E00B-1593-E063-792F520A6D48}", "CREATED": null, "EDITED": null, "OBJECTID": 10406 }, "geometry": { "type": "Point", "coordinates": [ -76.947464867308241, 38.900428184523022 ] } },
{ "type": "Feature", "properties": { "NAME": "AIDS HEALTHCARE FOUNDATION DBA AHF PHARMACY", "LICENSE_NUMBER": "RX250000132", "FACTYPE": null, "ADDRESS": "1701 K STREET, NW", "ADDRESSLINE2": "SUITE 400", "CITY": "Washington", "STATE": "DC", "ZIPCODE": "20006", "PHONE": "202-293-8695", "WARD": "Ward 2", "ANC": "ANC 2C", "SSL": "0164    0001", "SEASONAL": null, "H1N1": null, "XCOORD": 396635.88, "YCOORD": 137217.28, "MAR_ID": "218413", "GIS_ID": null, "GIS_LAST_MOD_DTTM": "2026-01-03T13:55:13Z", "SE_ANNO_CAD_DATA": null, "GLOBALID": "{477D2D03-E00C-1593-E063-792F520A6D48}", "CREATED": null, "EDITED": null, "OBJECTID": 10407 }, "geometry": { "type": "Point", "coordinates": [ -77.038786045529221, 38.902811763339251 ] } },
{ "type": "Feature", "properties": { "NAME": "AIDS HEALTHCARE FOUNDATION, DBA AHF PHARMACY", "LICENSE_NUMBER": "RX240000121", "FACTYPE": null, "ADDRESS": "650 PENNSYLVANIA AVE SE", "ADDRESSLINE2": "SUITE 380", "CITY": "Washington", "STATE": "DC", "ZIPCODE": "20003", "PHONE": "202-350-5005", "WARD": "Ward 6", "ANC": "ANC 6B", "SSL": "0873    0831,0873    0113", "SEASONAL": null, "H1N1": null, "XCOORD": 400262.13, "YCOORD": 135282.05, "MAR_ID": "280033", "GIS_ID": null, "GIS_LAST_MOD_DTTM": "2026-01-03T13:55:13Z", "SE_ANNO_CAD_DATA": null, "GLOBALID": "{477D2D03-E00D-1593-E063-792F520A6D48}", "CREATED": null, "EDITED": null, "OBJECTID": 10408 }, "geometry": { "type": "Point", "coordinates": [ -76.996981015844355, 38.885384896027155 ] } },
{ "type": "Feature", "properties": { "NAME": "APEX CARE PHARMACY", "LICENSE_NUMBER": "RX1100437", "FACTYPE": null, "ADDRESS": "3839 MINNESOTA AVE NE", "ADDRESSLINE2": null, "CITY": "Washington", "STATE": "DC", "ZIPCODE": "20019", "PHONE": "202-388-1900", "WARD": "Ward 7", "ANC": "ANC 7F", "SSL": "5050    0084", "SEASONAL": null, "H1N1": null, "XCOORD": 404304.67, "YCOORD": 136115.85, "MAR_ID": "29919", "GIS_ID": null, "GIS_LAST_MOD_DTTM": "2026-01-03T13:55:13Z", "SE_ANNO_CAD_DATA": null, "GLOBALID": "{477D2D03-E00E-1593-E063-792F520A6D48}", "CREATED": null, "EDITED": null, "OBJECTID": 10409 }, "geometry": { "type": "Point", "coordinates": [ -76.950382153518547, 38.892885583155596 ] } },
{ "type": "Feature", "properties": { "NAME": "APEX CARE SPECIALTY PHARMACY", "LICENSE_NUMBER": "RX0000059", "FACTYPE": null, "ADDRESS": "210 MICHIGAN AVE NE", "ADDRESSLINE2": null, "CITY": "Washington", "STATE": "DC", "ZIPCODE": "20017", "PHONE": "202-265-2200", "WARD": "Ward 5", "ANC": "ANC 5E", "SSL": "3499    0003", "SEASONAL": null, "H1N1": null, "XCOORD": 399613.92, "YCOORD": 140209.21, "MAR_ID": "286613", "GIS_ID": null, "GIS_LAST_MOD_DTTM": "2026-01-03T13:55:13Z", "SE_ANNO_CAD_DATA": null, "GLOBALID": "{477D2D03-E00F-1593-E063-792F520A6D48}", "CREATED": null, "EDITED": null, "OBJECTID": 10410 }, "geometry": { "type": "Point", "coordinates": [ -77.004454949203947, 38.929770420766893 ] } },
{ "type": "Feature", "properties": { "NAME": "ALPHA PEOPLES DRUGS", "LICENSE_NUMBER": "RX2200172", "FACTYPE": null, "ADDRESS": "1638 R STREET, NW", "ADDRESSLINE2": "SUITE 1", "CITY": "Washington", "STATE": "DC", "ZIPCODE": "20009", "PHONE": "202-265-7979", "WARD": "Ward 2", "ANC": "ANC 2B", "SSL": "0179    0115", "SEASONAL": null, "H1N1": null, "XCOORD": 396697.32, "YCOORD": 138280.78, "MAR_ID": "242787", "GIS_ID": null, "GIS_LAST_MOD_DTTM": "2026-01-03T13:55:13Z", "SE_ANNO_CAD_DATA": null, "GLOBALID": "{477D2D03-E010-1593-E063-792F520A6D48}", "CREATED": null, "EDITED": null, "OBJECTID": 10411 }, "geometry": { "type": "Point", "coordinates": [ -77.038082840443522, 38.912392373558099 ] } },
{ "type": "Feature", "properties": { "NAME": "AMERICAN ICT CORP DBA STERLING PHARMACY", "LICENSE_NUMBER": "RX250000133", "FACTYPE": null, "ADDRESS": "1647 BENNING ROAD NE", "ADDRESSLINE2": "SUITE 101", "CITY": "Washington", "STATE": "DC", "ZIPCODE": "20002", "PHONE": "202-399-7877", "WARD": "Ward 7", "ANC": "ANC 7D", "SSL": "4510    0151", "SEASONAL": null, "H1N1": null, "XCOORD": 401741.09, "YCOORD": 136819.58, "MAR_ID": "58546", "GIS_ID": null, "GIS_LAST_MOD_DTTM": "2026-01-03T13:55:13Z", "SE_ANNO_CAD_DATA": null, "GLOBALID": "{477D2D03-E011-1593-E063-792F520A6D48}", "CREATED": null, "EDITED": null, "OBJECTID": 10412 }, "geometry": { "type": "Point", "coordinates": [ -76.979930873571249, 38.899233854612426 ] } },
{ "type": "Feature", "properties": { "NAME": "BELLEVUE PHARMACY", "LICENSE_NUMBER": "RX0000108", "FACTYPE": null, "ADDRESS": "3939 SOUTH CAPITOL ST SW", "ADDRESSLINE2": null, "CITY": "Washington", "STATE": "DC", "ZIPCODE": "20032", "PHONE": "301-404-6067", "WARD": "Ward 8", "ANC": "ANC 8D", "SSL": null, "SEASONAL": null, "H1N1": null, "XCOORD": 399277.6, "YCOORD": 129314.35, "MAR_ID": "276605", "GIS_ID": null, "GIS_LAST_MOD_DTTM": "2026-01-03T13:55:13Z", "SE_ANNO_CAD_DATA": null, "GLOBALID": "{477D2D03-E012-1593-E063-792F520A6D48}", "CREATED": null, "EDITED": null, "OBJECTID": 10413 }, "geometry": { "type": "Point", "coordinates": [ -77.008322272830569, 38.831625062950835 ] } },
{ "type": "Feature", "properties": { "NAME": "BRIDGEPOINT CONTINUING CARE - NATIONAL HARBORSIDE HOSPITAL", "LICENSE_NUMBER": "RX240000124", "FACTYPE": null, "ADDRESS": "4601 MARTIN LUTHER KING JR. AVENUE SW", "ADDRESSLINE2": null, "CITY": "Washington", "STATE": "DC", "ZIPCODE": "20032", "PHONE": "20257457005711", "WARD": "Ward 8", "ANC": "ANC 8D", "SSL": "PAR 02520093", "SEASONAL": null, "H1N1": null, "XCOORD": 398851.56, "YCOORD": 128563.29, "MAR_ID": "295152", "GIS_ID": null, "GIS_LAST_MOD_DTTM": "2026-01-03T13:55:13Z", "SE_ANNO_CAD_DATA": null, "GLOBALID": "{477D2D03-E013-1593-E063-792F520A6D48}", "CREATED": null, "EDITED": null, "OBJECTID": 10414 }, "geometry": { "type": "Point", "coordinates": [ -77.013227788295993, 38.824858709177917 ] } },
{ "type": "Feature", "properties": { "NAME": "BRIDGEPOINT CONTINUING CARE HOSPITAL - CAPITOL HILL", "LICENSE_NUMBER": "RX240000125", "FACTYPE": null, "ADDRESS": "223 SEVENTH STREET NE", "ADDRESSLINE2": null, "CITY": "Washington", "STATE": "DC", "ZIPCODE": "20002", "PHONE": "20254657002161", "WARD": "Ward 6", "ANC": "ANC 6C", "SSL": "0895    0843,0895    0076", "SEASONAL": null, "H1N1": null, "XCOORD": 400362.05, "YCOORD": 136135.72, "MAR_ID": "315754", "GIS_ID": null, "GIS_LAST_MOD_DTTM": "2026-01-03T13:55:13Z", "SE_ANNO_CAD_DATA": null, "GLOBALID": "{477D2D03-E014-1593-E063-792F520A6D48}", "CREATED": null, "EDITED": null, "OBJECTID": 10415 }, "geometry": { "type": "Point", "coordinates": [ -76.995828905191246, 38.893075042217625 ] } },
{ "type": "Feature", "properties": { "NAME": "CAPSULE PHARMACY", "LICENSE_NUMBER": "RX1900145", "FACTYPE": null, "ADDRESS": "1705 DESALES STREET NW", "ADDRESSLINE2": null, "CITY": "Washington", "STATE": "DC", "ZIPCODE": "20036", "PHONE": "888-685-9515", "WARD": "Ward 2", "ANC": "ANC 2C", "SSL": "0162    0817,0162    0018", "SEASONAL": null, "H1N1": null, "XCOORD": 396621.73, "YCOORD": 137458.22, "MAR_ID": "243305", "GIS_ID": null, "GIS_LAST_MOD_DTTM": "2026-01-03T13:55:13Z", "SE_ANNO_CAD_DATA": null, "GLOBALID": "{477D2D03-E015-1593-E063-792F520A6D48}", "CREATED": null, "EDITED": null, "OBJECTID": 10416 }, "geometry": { "type": "Point", "coordinates": [ -77.0389503611446, 38.904982181675862 ] } },
{ "type": "Feature", "properties": { "NAME": "CARY RX INCORPORATED", "LICENSE_NUMBER": "RX0000111", "FACTYPE": null, "ADDRESS": "1300 7TH STREET NW", "ADDRESSLINE2": "STE 200", "CITY": "Washington", "STATE": "DC", "ZIPCODE": "20001", "PHONE": "410-707-2868", "WARD": "Ward 2", "ANC": "ANC 2G", "SSL": "0423    0800,0423    0001", "SEASONAL": null, "H1N1": null, "XCOORD": 398076.76, "YCOORD": 137726.26, "MAR_ID": "243247", "GIS_ID": null, "GIS_LAST_MOD_DTTM": "2026-01-03T13:55:13Z", "SE_ANNO_CAD_DATA": null, "GLOBALID": "{477D2D03-E016-1593-E063-792F520A6D48}", "CREATED": null, "EDITED": null, "OBJECTID": 10417 }, "geometry": { "type": "Point", "coordinates": [ -77.022176070877819, 38.907401168387203 ] } },
{ "type": "Feature", "properties": { "NAME": "CENTRAL PHARMACY LLC", "LICENSE_NUMBER": "RX1200018", "FACTYPE": null, "ADDRESS": "2202 MARTIN LUTHER KING JR AVE SE", "ADDRESSLINE2": null, "CITY": "Washington", "STATE": "DC", "ZIPCODE": "20020", "PHONE": "202-678-6010", "WARD": "Ward 8", "ANC": "ANC 8A", "SSL": "5791    0011", "SEASONAL": null, "H1N1": null, "XCOORD": 400900.39, "YCOORD": 132985.16, "MAR_ID": "50580", "GIS_ID": null, "GIS_LAST_MOD_DTTM": "2026-01-03T13:55:13Z", "SE_ANNO_CAD_DATA": null, "GLOBALID": "{477D2D03-E017-1593-E063-792F520A6D48}", "CREATED": null, "EDITED": null, "OBJECTID": 10418 }, "geometry": { "type": "Point", "coordinates": [ -76.989627544636392, 38.864693171375663 ] } },
{ "type": "Feature", "properties": { "NAME": "CHILDREN'S NATIONAL MEDICAL CENTER PHARMACY", "LICENSE_NUMBER": "RX8800078", "FACTYPE": null, "ADDRESS": "111 MICHIGAN AVE NW", "ADDRESSLINE2": null, "CITY": "Washington", "STATE": "DC", "ZIPCODE": "20010", "PHONE": "202-476-4244", "WARD": "Ward 5", "ANC": "ANC 5E", "SSL": "3129    0801,3129    0002", "SEASONAL": null, "H1N1": null, "XCOORD": 398807.6, "YCOORD": 139978.02, "MAR_ID": "243365", "GIS_ID": null, "GIS_LAST_MOD_DTTM": "2026-01-03T13:55:13Z", "SE_ANNO_CAD_DATA": null, "GLOBALID": "{477D2D03-E018-1593-E063-792F520A6D48}", "CREATED": null, "EDITED": null, "OBJECTID": 10419 }, "geometry": { "type": "Point", "coordinates": [ -77.01375384259461, 38.927687064359176 ] } },
{ "type": "Feature", "properties": { "NAME": "COLUMBIA HEIGHTS PHARMACY", "LICENSE_NUMBER": "RX9300229", "FACTYPE": null, "ADDRESS": "3316 14TH ST NW", "ADDRESSLINE2": null, "CITY": "Washington", "STATE": "DC", "ZIPCODE": "20010", "PHONE": "202-548-0008", "WARD": "Ward 1", "ANC": "ANC 1A", "SSL": "2676    0795", "SEASONAL": null, "H1N1": null, "XCOORD": 397141.98, "YCOORD": 140320.43, "MAR_ID": "300782", "GIS_ID": null, "GIS_LAST_MOD_DTTM": "2026-01-03T13:55:13Z", "SE_ANNO_CAD_DATA": null, "GLOBALID": "{477D2D03-E019-1593-E063-792F520A6D48}", "CREATED": null, "EDITED": null, "OBJECTID": 10420 }, "geometry": { "type": "Point", "coordinates": [ -77.032964315572485, 38.930767760672943 ] } },
{ "type": "Feature", "properties": { "NAME": "CVS PHARMACY #10685", "LICENSE_NUMBER": "RX0000100", "FACTYPE": null, "ADDRESS": "675 K  STREET NW", "ADDRESSLINE2": null, "CITY": "Washington", "STATE": "DC", "ZIPCODE": "20001", "PHONE": "401-765-1500", "WARD": "Ward 6", "ANC": "ANC 6E", "SSL": "0451    0033", "SEASONAL": null, "H1N1": null, "XCOORD": 398151.85, "YCOORD": 137214.34, "MAR_ID": "313510", "GIS_ID": null, "GIS_LAST_MOD_DTTM": "2026-01-03T13:55:13Z", "SE_ANNO_CAD_DATA": null, "GLOBALID": "{477D2D03-E01A-1593-E063-792F520A6D48}", "CREATED": null, "EDITED": null, "OBJECTID": 10421 }, "geometry": { "type": "Point", "coordinates": [ -77.021308951069898, 38.902789774069774 ] } },
{ "type": "Feature", "properties": { "NAME": "CVS PHARMACY #1354", "LICENSE_NUMBER": "RX1200003", "FACTYPE": null, "ADDRESS": "2601 CONNECTICUT AVE NW", "ADDRESSLINE2": null, "CITY": "Washington", "STATE": "DC", "ZIPCODE": "20008", "PHONE": "401-765-1500", "WARD": "Ward 3", "ANC": "ANC 3C", "SSL": "2204    0835,2204    0094", "SEASONAL": null, "H1N1": null, "XCOORD": 395549.49, "YCOORD": 139550.37, "MAR_ID": "219106", "GIS_ID": null, "GIS_LAST_MOD_DTTM": "2026-01-03T13:55:13Z", "SE_ANNO_CAD_DATA": null, "GLOBALID": "{477D2D03-E01B-1593-E063-792F520A6D48}", "CREATED": null, "EDITED": null, "OBJECTID": 10422 }, "geometry": { "type": "Point", "coordinates": [ -77.051325776523385, 38.923824194892482 ] } },
{ "type": "Feature", "properties": { "NAME": "CVS PHARMACY #2733", "LICENSE_NUMBER": "RX0000294", "FACTYPE": null, "ADDRESS": "1601 17TH ST NW", "ADDRESSLINE2": null, "CITY": "Washington", "STATE": "DC", "ZIPCODE": "20009", "PHONE": "401-770-8836", "WARD": "Ward 2", "ANC": "ANC 2B", "SSL": "0179    0113", "SEASONAL": null, "H1N1": null, "XCOORD": 396682.56, "YCOORD": 138165.26, "MAR_ID": "279240", "GIS_ID": null, "GIS_LAST_MOD_DTTM": "2026-01-03T13:55:13Z", "SE_ANNO_CAD_DATA": null, "GLOBALID": "{477D2D03-E01C-1593-E063-792F520A6D48}", "CREATED": null, "EDITED": null, "OBJECTID": 10423 }, "geometry": { "type": "Point", "coordinates": [ -77.038252467991583, 38.911351674508396 ] } },
{ "type": "Feature", "properties": { "NAME": "CVS/ PHARMACY #10287", "LICENSE_NUMBER": "RX0000089", "FACTYPE": null, "ADDRESS": "645 HST NE", "ADDRESSLINE2": null, "CITY": "Washington", "STATE": "DC", "ZIPCODE": "20002", "PHONE": "401-765-1500", "WARD": "Ward 6", "ANC": "ANC 6C", "SSL": "0859    0839,0859    0177", "SEASONAL": null, "H1N1": null, "XCOORD": 400295.92, "YCOORD": 136895.81, "MAR_ID": "288821", "GIS_ID": null, "GIS_LAST_MOD_DTTM": "2026-01-03T13:55:13Z", "SE_ANNO_CAD_DATA": null, "GLOBALID": "{477D2D03-E01D-1593-E063-792F520A6D48}", "CREATED": null, "EDITED": null, "OBJECTID": 10424 }, "geometry": { "type": "Point", "coordinates": [ -76.996590863736074, 38.899922235783599 ] } },
{ "type": "Feature", "properties": { "NAME": "CVS/ PHARMACY #7102", "LICENSE_NUMBER": "RX1000371", "FACTYPE": null, "ADDRESS": "1100 NEW JERSEY AVENUE SE", "ADDRESSLINE2": null, "CITY": "Washington", "STATE": "DC", "ZIPCODE": "20003", "PHONE": "401-765-1500", "WARD": "Ward 8", "ANC": "ANC 8F", "SSL": "0742    0039", "SEASONAL": null, "H1N1": null, "XCOORD": 399657.93, "YCOORD": 134346.72, "MAR_ID": "285822", "GIS_ID": null, "GIS_LAST_MOD_DTTM": "2026-01-03T13:55:13Z", "SE_ANNO_CAD_DATA": null, "GLOBALID": "{477D2D03-E01E-1593-E063-792F520A6D48}", "CREATED": null, "EDITED": null, "OBJECTID": 10425 }, "geometry": { "type": "Point", "coordinates": [ -77.003944458542705, 38.876959050725127 ] } },
{ "type": "Feature", "properties": { "NAME": "CVS/PHARMACY #10415", "LICENSE_NUMBER": "RX1700120", "FACTYPE": null, "ADDRESS": "804 MAINE AVE SW", "ADDRESSLINE2": null, "CITY": "Washington", "STATE": "DC", "ZIPCODE": "20024", "PHONE": "401-765-1500", "WARD": "Ward 6", "ANC": "ANC 6D", "SSL": "0473    0930,0473    0088,0473    7004", "SEASONAL": null, "H1N1": null, "XCOORD": 397870.18, "YCOORD": 134652.64, "MAR_ID": "314883", "GIS_ID": null, "GIS_LAST_MOD_DTTM": "2026-01-03T13:55:13Z", "SE_ANNO_CAD_DATA": null, "GLOBALID": "{477D2D03-E01F-1593-E063-792F520A6D48}", "CREATED": null, "EDITED": null, "OBJECTID": 10426 }, "geometry": { "type": "Point", "coordinates": [ -77.024548282348277, 38.879712385132933 ] } },
{ "type": "Feature", "properties": { "NAME": "CVS/PHARMACY #1333", "LICENSE_NUMBER": "RX1000377", "FACTYPE": null, "ADDRESS": "3601 12TH STREET NE", "ADDRESSLINE2": null, "CITY": "Washington", "STATE": "DC", "ZIPCODE": "20017", "PHONE": "401-765-1500", "WARD": "Ward 5", "ANC": "ANC 5B", "SSL": "3927    0812,3927    0012", "SEASONAL": null, "H1N1": null, "XCOORD": 400794.92, "YCOORD": 140658.86, "MAR_ID": "289172", "GIS_ID": null, "GIS_LAST_MOD_DTTM": "2026-01-03T13:55:13Z", "SE_ANNO_CAD_DATA": null, "GLOBALID": "{477D2D03-E020-1593-E063-792F520A6D48}", "CREATED": null, "EDITED": null, "OBJECTID": 10427 }, "geometry": { "type": "Point", "coordinates": [ -76.990833945835476, 38.933820732015 ] } },
{ "type": "Feature", "properties": { "NAME": "CVS/PHARMACY #1337", "LICENSE_NUMBER": "RX1000380", "FACTYPE": null, "ADDRESS": "1403 WISCONSIN AVE NW", "ADDRESSLINE2": null, "CITY": "Washington", "STATE": "DC", "ZIPCODE": "20007", "PHONE": "401-765-1500", "WARD": "Ward 2", "ANC": "ANC 2E", "SSL": "1256    0064", "SEASONAL": null, "H1N1": null, "XCOORD": 394481.25, "YCOORD": 137864.45, "MAR_ID": "223778", "GIS_ID": null, "GIS_LAST_MOD_DTTM": "2026-01-03T13:55:13Z", "SE_ANNO_CAD_DATA": null, "GLOBALID": "{477D2D03-E021-1593-E063-792F520A6D48}", "CREATED": null, "EDITED": null, "OBJECTID": 10428 }, "geometry": { "type": "Point", "coordinates": [ -77.063631214800964, 38.908630808638861 ] } },
{ "type": "Feature", "properties": { "NAME": "CVS/PHARMACY #1341", "LICENSE_NUMBER": "RX1000382", "FACTYPE": null, "ADDRESS": "1199 VERMONT AVE NW", "ADDRESSLINE2": null, "CITY": "Washington", "STATE": "DC", "ZIPCODE": "20005", "PHONE": "401-765-1500", "WARD": "Ward 2", "ANC": "ANC 2C", "SSL": "0215    0012", "SEASONAL": null, "H1N1": null, "XCOORD": 397199.52, "YCOORD": 137395.16, "MAR_ID": "278914", "GIS_ID": null, "GIS_LAST_MOD_DTTM": "2026-01-03T13:55:13Z", "SE_ANNO_CAD_DATA": null, "GLOBALID": "{477D2D03-E022-1593-E063-792F520A6D48}", "CREATED": null, "EDITED": null, "OBJECTID": 10429 }, "geometry": { "type": "Point", "coordinates": [ -77.032288763261505, 38.904416146013361 ] } },
{ "type": "Feature", "properties": { "NAME": "CVS/PHARMACY #1343", "LICENSE_NUMBER": "RX1000384", "FACTYPE": null, "ADDRESS": "4851 MASSACHUSETTS AVE NW", "ADDRESSLINE2": null, "CITY": "Washington", "STATE": "DC", "ZIPCODE": "20016", "PHONE": "401-765-1500", "WARD": "Ward 3", "ANC": "ANC 3E", "SSL": "1499    0803,1499    0001", "SEASONAL": null, "H1N1": null, "XCOORD": 391685.21, "YCOORD": 142013.38, "MAR_ID": "284996", "GIS_ID": null, "GIS_LAST_MOD_DTTM": "2026-01-03T13:55:13Z", "SE_ANNO_CAD_DATA": null, "GLOBALID": "{477D2D03-E023-1593-E063-792F520A6D48}", "CREATED": null, "EDITED": null, "OBJECTID": 10430 }, "geometry": { "type": "Point", "coordinates": [ -77.09591865563722, 38.945983652072314 ] } },
{ "type": "Feature", "properties": { "NAME": "CVS/PHARMACY #1344", "LICENSE_NUMBER": "RX1000413", "FACTYPE": null, "ADDRESS": "500 12TH ST SE", "ADDRESSLINE2": null, "CITY": "Washington", "STATE": "DC", "ZIPCODE": "20003", "PHONE": "401-765-1500", "WARD": "Ward 6", "ANC": "ANC 6B", "SSL": "1019    0828,1019    0029", "SEASONAL": null, "H1N1": null, "XCOORD": 400875.47, "YCOORD": 134967.05, "MAR_ID": "288394", "GIS_ID": null, "GIS_LAST_MOD_DTTM": "2026-01-03T13:55:13Z", "SE_ANNO_CAD_DATA": null, "GLOBALID": "{477D2D03-E024-1593-E063-792F520A6D48}", "CREATED": null, "EDITED": null, "OBJECTID": 10431 }, "geometry": { "type": "Point", "coordinates": [ -76.989912162129599, 38.882546857984863 ] } },
{ "type": "Feature", "properties": { "NAME": "CVS/PHARMACY #1347", "LICENSE_NUMBER": "RX1000387", "FACTYPE": null, "ADDRESS": "6 DUPONT CIRCLE NW", "ADDRESSLINE2": null, "CITY": "Washington", "STATE": "DC", "ZIPCODE": "20036", "PHONE": "401-765-1500", "WARD": "Ward 2", "ANC": "ANC 2B", "SSL": "0114    0025", "SEASONAL": null, "H1N1": null, "XCOORD": 396141.72, "YCOORD": 137954.16, "MAR_ID": "241054", "GIS_ID": null, "GIS_LAST_MOD_DTTM": "2026-01-03T13:55:13Z", "SE_ANNO_CAD_DATA": null, "GLOBALID": "{477D2D03-E025-1593-E063-792F520A6D48}", "CREATED": null, "EDITED": null, "OBJECTID": 10432 }, "geometry": { "type": "Point", "coordinates": [ -77.044487182468529, 38.909447805398372 ] } },
{ "type": "Feature", "properties": { "NAME": "CVS/PHARMACY #1351", "LICENSE_NUMBER": "RX1000370", "FACTYPE": null, "ADDRESS": "1755 COLUMBIA RD NW", "ADDRESSLINE2": null, "CITY": "Washington", "STATE": "DC", "ZIPCODE": "20009", "PHONE": "401-765-1500", "WARD": "Ward 1", "ANC": "ANC 1C", "SSL": "2580    0514", "SEASONAL": null, "H1N1": null, "XCOORD": 396406.23, "YCOORD": 139555.84, "MAR_ID": "235930", "GIS_ID": null, "GIS_LAST_MOD_DTTM": "2026-01-03T13:55:13Z", "SE_ANNO_CAD_DATA": null, "GLOBALID": "{477D2D03-E026-1593-E063-792F520A6D48}", "CREATED": null, "EDITED": null, "OBJECTID": 10433 }, "geometry": { "type": "Point", "coordinates": [ -77.041445840537349, 38.923877392164499 ] } },
{ "type": "Feature", "properties": { "NAME": "CVS/PHARMACY #1353", "LICENSE_NUMBER": "RX1000391", "FACTYPE": null, "ADDRESS": "3327 CONNECTICUT AVE NW", "ADDRESSLINE2": null, "CITY": "Washington", "STATE": "DC", "ZIPCODE": "20008", "PHONE": "401-765-1500", "WARD": "Ward 3", "ANC": "ANC 3C", "SSL": "2218    0821,2218    0024", "SEASONAL": null, "H1N1": null, "XCOORD": 395029.94, "YCOORD": 140720.01, "MAR_ID": "219245", "GIS_ID": null, "GIS_LAST_MOD_DTTM": "2026-01-03T13:55:13Z", "SE_ANNO_CAD_DATA": null, "GLOBALID": "{477D2D03-E027-1593-E063-792F520A6D48}", "CREATED": null, "EDITED": null, "OBJECTID": 10434 }, "geometry": { "type": "Point", "coordinates": [ -77.057325720643192, 38.934357889960886 ] } },
{ "type": "Feature", "properties": { "NAME": "CVS/PHARMACY #1364", "LICENSE_NUMBER": "RX1000373", "FACTYPE": null, "ADDRESS": "6514 GEORGIA AVE NW", "ADDRESSLINE2": null, "CITY": "Washington", "STATE": "DC", "ZIPCODE": "20012", "PHONE": "401-765-1500", "WARD": "Ward 4", "ANC": "ANC 4A", "SSL": "2946    0044", "SEASONAL": null, "H1N1": null, "XCOORD": 397598.39, "YCOORD": 144618.75, "MAR_ID": "285342", "GIS_ID": null, "GIS_LAST_MOD_DTTM": "2026-01-03T13:55:13Z", "SE_ANNO_CAD_DATA": null, "GLOBALID": "{477D2D03-E028-1593-E063-792F520A6D48}", "CREATED": null, "EDITED": null, "OBJECTID": 10435 }, "geometry": { "type": "Point", "coordinates": [ -77.02771551360641, 38.969489577099658 ] } },
{ "type": "Feature", "properties": { "NAME": "CVS/PHARMACY #1365", "LICENSE_NUMBER": "RX1000397", "FACTYPE": null, "ADDRESS": "1637 P STREET NW", "ADDRESSLINE2": null, "CITY": "Washington", "STATE": "DC", "ZIPCODE": "20036", "PHONE": "401-765-1500", "WARD": "Ward 2", "ANC": "ANC 2B", "SSL": "0180    0088", "SEASONAL": null, "H1N1": null, "XCOORD": 396685.28, "YCOORD": 137997.78, "MAR_ID": "225837", "GIS_ID": null, "GIS_LAST_MOD_DTTM": "2026-01-03T13:55:13Z", "SE_ANNO_CAD_DATA": null, "GLOBALID": "{477D2D03-E029-1593-E063-792F520A6D48}", "CREATED": null, "EDITED": null, "OBJECTID": 10436 }, "geometry": { "type": "Point", "coordinates": [ -77.038220297785259, 38.909842967611944 ] } },
{ "type": "Feature", "properties": { "NAME": "CVS/PHARMACY #1842", "LICENSE_NUMBER": "RX1000412", "FACTYPE": null, "ADDRESS": "1275 PENNSYLVANIA AVE NW", "ADDRESSLINE2": null, "CITY": "Washington", "STATE": "DC", "ZIPCODE": "20004", "PHONE": "401-765-1500", "WARD": "Ward 2", "ANC": "ANC 2C", "SSL": "0291    0038", "SEASONAL": null, "H1N1": null, "XCOORD": 397462.38, "YCOORD": 136423.63, "MAR_ID": "300418", "GIS_ID": null, "GIS_LAST_MOD_DTTM": "2026-01-03T13:55:13Z", "SE_ANNO_CAD_DATA": null, "GLOBALID": "{477D2D03-E02A-1593-E063-792F520A6D48}", "CREATED": null, "EDITED": null, "OBJECTID": 10437 }, "geometry": { "type": "Point", "coordinates": [ -77.029254684755557, 38.895665052549518 ] } },
{ "type": "Feature", "properties": { "NAME": "CVS/PHARMACY #2174", "LICENSE_NUMBER": "RX1000402", "FACTYPE": null, "ADDRESS": "4555 WISCONSIN AVE NW", "ADDRESSLINE2": null, "CITY": "Washington", "STATE": "DC", "ZIPCODE": "20016", "PHONE": "401-765-1500", "WARD": "Ward 3", "ANC": "ANC 3E", "SSL": "1770    0023", "SEASONAL": null, "H1N1": null, "XCOORD": 393059.11, "YCOORD": 142390.91, "MAR_ID": "300795", "GIS_ID": null, "GIS_LAST_MOD_DTTM": "2026-01-03T13:55:13Z", "SE_ANNO_CAD_DATA": null, "GLOBALID": "{477D2D03-E02B-1593-E063-792F520A6D48}", "CREATED": null, "EDITED": null, "OBJECTID": 10438 }, "geometry": { "type": "Point", "coordinates": [ -77.080073677961067, 38.949396476932122 ] } },
{ "type": "Feature", "properties": { "NAME": "CVS/PHARMACY #22", "LICENSE_NUMBER": "RX1000376", "FACTYPE": null, "ADDRESS": "320 40TH STREET NE", "ADDRESSLINE2": null, "CITY": "Washington", "STATE": "DC", "ZIPCODE": "20019", "PHONE": "401-765-1500", "WARD": "Ward 7", "ANC": "ANC 7F", "SSL": "5051N   0019", "SEASONAL": null, "H1N1": null, "XCOORD": 404555.57, "YCOORD": 136132.76, "MAR_ID": "295139", "GIS_ID": null, "GIS_LAST_MOD_DTTM": "2026-01-03T13:55:13Z", "SE_ANNO_CAD_DATA": null, "GLOBALID": "{477D2D03-E02C-1593-E063-792F520A6D48}", "CREATED": null, "EDITED": null, "OBJECTID": 10439 }, "geometry": { "type": "Point", "coordinates": [ -76.947489906152512, 38.893036650460374 ] } },
{ "type": "Feature", "properties": { "NAME": "CVS/PHARMACY #2204", "LICENSE_NUMBER": "RX1000403", "FACTYPE": null, "ADDRESS": "4859 MACARTHUR BLVD NW", "ADDRESSLINE2": null, "CITY": "Washington", "STATE": "DC", "ZIPCODE": "20007", "PHONE": "401-765-1500", "WARD": "Ward 3", "ANC": "ANC 3D", "SSL": "1374    0841,1374    0001", "SEASONAL": null, "H1N1": null, "XCOORD": 391721.82, "YCOORD": 138770.05, "MAR_ID": "293246", "GIS_ID": null, "GIS_LAST_MOD_DTTM": "2026-01-03T13:55:13Z", "SE_ANNO_CAD_DATA": null, "GLOBALID": "{477D2D03-E02D-1593-E063-792F520A6D48}", "CREATED": null, "EDITED": null, "OBJECTID": 10440 }, "geometry": { "type": "Point", "coordinates": [ -77.095457213198614, 38.916767097516313 ] } },
{ "type": "Feature", "properties": { "NAME": "CVS/PHARMACY #2330", "LICENSE_NUMBER": "RX1000405", "FACTYPE": null, "ADDRESS": "110 CARROLL STREET NW", "ADDRESSLINE2": null, "CITY": "Washington", "STATE": "DC", "ZIPCODE": "20012", "PHONE": "401-765-1500", "WARD": "Ward 4", "ANC": "ANC 4B", "SSL": "3357    0060", "SEASONAL": null, "H1N1": null, "XCOORD": 398735.59, "YCOORD": 145174.77, "MAR_ID": "280093", "GIS_ID": null, "GIS_LAST_MOD_DTTM": "2026-01-03T13:55:13Z", "SE_ANNO_CAD_DATA": null, "GLOBALID": "{477D2D03-E02E-1593-E063-792F520A6D48}", "CREATED": null, "EDITED": null, "OBJECTID": 10441 }, "geometry": { "type": "Point", "coordinates": [ -77.014593892740891, 38.974500711083195 ] } },
{ "type": "Feature", "properties": { "NAME": "CVS/PHARMACY #2378", "LICENSE_NUMBER": "RX1000406", "FACTYPE": null, "ADDRESS": "2226 WISCONSIN AVE NW", "ADDRESSLINE2": null, "CITY": "Washington", "STATE": "DC", "ZIPCODE": "20007", "PHONE": "401-765-1500", "WARD": "Ward 3", "ANC": "ANC 3B", "SSL": "1300    0556", "SEASONAL": null, "H1N1": null, "XCOORD": 393793.35, "YCOORD": 139108.9, "MAR_ID": "275326", "GIS_ID": null, "GIS_LAST_MOD_DTTM": "2026-01-03T13:55:13Z", "SE_ANNO_CAD_DATA": null, "GLOBALID": "{477D2D03-E02F-1593-E063-792F520A6D48}", "CREATED": null, "EDITED": null, "OBJECTID": 10442 }, "geometry": { "type": "Point", "coordinates": [ -77.071573667130465, 38.919836641478071 ] } },
{ "type": "Feature", "properties": { "NAME": "CVS/PHARMACY #2817", "LICENSE_NUMBER": "RX1000409", "FACTYPE": null, "ADDRESS": "1418 P ST NW", "ADDRESSLINE2": null, "CITY": "Washington", "STATE": "DC", "ZIPCODE": "20005", "PHONE": "401-765-1500", "WARD": "Ward 2", "ANC": "ANC 2F", "SSL": "0210    0137", "SEASONAL": null, "H1N1": null, "XCOORD": 397150.8, "YCOORD": 137942.9, "MAR_ID": "279148", "GIS_ID": null, "GIS_LAST_MOD_DTTM": "2026-01-03T13:55:13Z", "SE_ANNO_CAD_DATA": null, "GLOBALID": "{477D2D03-E030-1593-E063-792F520A6D48}", "CREATED": null, "EDITED": null, "OBJECTID": 10443 }, "geometry": { "type": "Point", "coordinates": [ -77.032852724383034, 38.909350222245912 ] } },
{ "type": "Feature", "properties": { "NAME": "CVS/PHARMACY #2847", "LICENSE_NUMBER": "RX0800360", "FACTYPE": null, "ADDRESS": "2000 PENNSYLVANIA AVE NW", "ADDRESSLINE2": null, "CITY": "Washington", "STATE": "DC", "ZIPCODE": "20006", "PHONE": "401-765-1500", "WARD": "Ward 2", "ANC": "ANC 2A", "SSL": "0101    0058", "SEASONAL": null, "H1N1": null, "XCOORD": 396029.25, "YCOORD": 136945.71, "MAR_ID": "243283", "GIS_ID": null, "GIS_LAST_MOD_DTTM": "2026-01-03T13:55:13Z", "SE_ANNO_CAD_DATA": null, "GLOBALID": "{477D2D03-E031-1593-E063-792F520A6D48}", "CREATED": null, "EDITED": null, "OBJECTID": 10444 }, "geometry": { "type": "Point", "coordinates": [ -77.045778099277484, 38.900362832666218 ] } },
{ "type": "Feature", "properties": { "NAME": "CVS/PHARMACY #4546", "LICENSE_NUMBER": "RX0800361", "FACTYPE": null, "ADDRESS": "2129 14TH ST NW", "ADDRESSLINE2": null, "CITY": "Washington", "STATE": "DC", "ZIPCODE": "20009", "PHONE": "401-765-1500", "WARD": "Ward 1", "ANC": "ANC 1B", "SSL": "0235    0204", "SEASONAL": null, "H1N1": null, "XCOORD": 397257.41, "YCOORD": 139004.32, "MAR_ID": "306455", "GIS_ID": null, "GIS_LAST_MOD_DTTM": "2026-01-03T13:55:13Z", "SE_ANNO_CAD_DATA": null, "GLOBALID": "{477D2D03-E032-1593-E063-792F520A6D48}", "CREATED": null, "EDITED": null, "OBJECTID": 10445 }, "geometry": { "type": "Point", "coordinates": [ -77.031627782656059, 38.918912190127038 ] } },
{ "type": "Feature", "properties": { "NAME": "CVS/PHARMACY #5674", "LICENSE_NUMBER": "RX0000070", "FACTYPE": null, "ADDRESS": "3700 NEWARK ST NW", "ADDRESSLINE2": null, "CITY": "Washington", "STATE": "DC", "ZIPCODE": "20016", "PHONE": "401-765-1500", "WARD": "Ward 3", "ANC": "ANC 3A", "SSL": "1920    0061", "SEASONAL": null, "H1N1": null, "XCOORD": 393641.24, "YCOORD": 140744.57, "MAR_ID": "311533", "GIS_ID": null, "GIS_LAST_MOD_DTTM": "2026-01-03T13:55:13Z", "SE_ANNO_CAD_DATA": null, "GLOBALID": "{477D2D03-E033-1593-E063-792F520A6D48}", "CREATED": null, "EDITED": null, "OBJECTID": 10446 }, "geometry": { "type": "Point", "coordinates": [ -77.073342862248836, 38.934570180382323 ] } },
{ "type": "Feature", "properties": { "NAME": "CVS/PHARMACY #7074", "LICENSE_NUMBER": "RX1000414", "FACTYPE": null, "ADDRESS": "2240 M ST NW", "ADDRESSLINE2": null, "CITY": "Washington", "STATE": "DC", "ZIPCODE": "20037", "PHONE": "401-765-1500", "WARD": "Ward 2", "ANC": "ANC 2A", "SSL": "0051    0079", "SEASONAL": null, "H1N1": null, "XCOORD": 395711.5, "YCOORD": 137467.84, "MAR_ID": "300189", "GIS_ID": null, "GIS_LAST_MOD_DTTM": "2026-01-03T13:55:13Z", "SE_ANNO_CAD_DATA": null, "GLOBALID": "{477D2D03-E034-1593-E063-792F520A6D48}", "CREATED": null, "EDITED": null, "OBJECTID": 10447 }, "geometry": { "type": "Point", "coordinates": [ -77.049444461719887, 38.905064871949556 ] } },
{ "type": "Feature", "properties": { "NAME": "CVS/PHARMACY #7174", "LICENSE_NUMBER": "RX1100429", "FACTYPE": null, "ADDRESS": "1200 1ST ST NE", "ADDRESSLINE2": null, "CITY": "Washington", "STATE": "DC", "ZIPCODE": "20002", "PHONE": "401-765-1500", "WARD": "Ward 6", "ANC": "ANC 6E", "SSL": "0672    0856,0672    0259", "SEASONAL": null, "H1N1": null, "XCOORD": 399453.62, "YCOORD": 137580.51, "MAR_ID": "302635", "GIS_ID": null, "GIS_LAST_MOD_DTTM": "2026-01-03T13:55:13Z", "SE_ANNO_CAD_DATA": null, "GLOBALID": "{477D2D03-E035-1593-E063-792F520A6D48}", "CREATED": null, "EDITED": null, "OBJECTID": 10448 }, "geometry": { "type": "Point", "coordinates": [ -77.006301596989459, 38.906090136371574 ] } },
{ "type": "Feature", "properties": { "NAME": "CVS/PHRMACY #2787", "LICENSE_NUMBER": "RX1000423", "FACTYPE": null, "ADDRESS": "3642 GEORGIA AVE NW", "ADDRESSLINE2": null, "CITY": "Washington", "STATE": "DC", "ZIPCODE": "20010", "PHONE": "401-765-1500", "WARD": "Ward 1", "ANC": "ANC 1E", "SSL": "2897    0147", "SEASONAL": null, "H1N1": null, "XCOORD": 397878.91, "YCOORD": 140854.66, "MAR_ID": "308316", "GIS_ID": null, "GIS_LAST_MOD_DTTM": "2026-01-03T13:55:13Z", "SE_ANNO_CAD_DATA": null, "GLOBALID": "{477D2D03-E036-1593-E063-792F520A6D48}", "CREATED": null, "EDITED": null, "OBJECTID": 10449 }, "geometry": { "type": "Point", "coordinates": [ -77.024466828664515, 38.935582355699523 ] } },
{ "type": "Feature", "properties": { "NAME": "CARYRX", "LICENSE_NUMBER": "RX250000149", "FACTYPE": null, "ADDRESS": "1444 I STREET NW", "ADDRESSLINE2": null, "CITY": "Washington", "STATE": "DC", "ZIPCODE": "20005", "PHONE": "202-688-0101", "WARD": "Ward 2", "ANC": "ANC 2C", "SSL": "0220    0065", "SEASONAL": null, "H1N1": null, "XCOORD": 397158.48, "YCOORD": 137029.19, "MAR_ID": "218284", "GIS_ID": null, "GIS_LAST_MOD_DTTM": "2026-01-03T13:55:13Z", "SE_ANNO_CAD_DATA": null, "GLOBALID": "{477D2D03-E037-1593-E063-792F520A6D48}", "CREATED": null, "EDITED": null, "OBJECTID": 10450 }, "geometry": { "type": "Point", "coordinates": [ -77.032760395414257, 38.901119226517515 ] } },
{ "type": "Feature", "properties": { "NAME": "CEDAR HILL REGIONAL MEDICAL CENTER", "LICENSE_NUMBER": "RX250000127", "FACTYPE": null, "ADDRESS": "1200 PECAN ST SE", "ADDRESSLINE2": null, "CITY": "Washington", "STATE": "DC", "ZIPCODE": "20032", "PHONE": "202-715-5037", "WARD": "Ward 8", "ANC": "ANC 8C", "SSL": "5868S   0859,5868S   0002", "SEASONAL": null, "H1N1": null, "XCOORD": 400492.99, "YCOORD": 131447.16, "MAR_ID": "334872", "GIS_ID": null, "GIS_LAST_MOD_DTTM": "2026-01-03T13:55:13Z", "SE_ANNO_CAD_DATA": null, "GLOBALID": "{477D2D03-E038-1593-E063-792F520A6D48}", "CREATED": null, "EDITED": null, "OBJECTID": 10451 }, "geometry": { "type": "Point", "coordinates": [ -76.994322909617708, 38.850838534824767 ] } },
{ "type": "Feature", "properties": { "NAME": "COMMUNITY OF HOPE PHARMACY", "LICENSE_NUMBER": "RX2200167", "FACTYPE": null, "ADDRESS": "2120 BLADENSBURG ROAD NE", "ADDRESSLINE2": null, "CITY": "Washington", "STATE": "DC", "ZIPCODE": "20018", "PHONE": "806-324-5400", "WARD": "Ward 5", "ANC": "ANC 5C", "SSL": "4258    0037", "SEASONAL": null, "H1N1": null, "XCOORD": 402491.13, "YCOORD": 139057.63, "MAR_ID": "51359", "GIS_ID": null, "GIS_LAST_MOD_DTTM": "2026-01-03T13:55:13Z", "SE_ANNO_CAD_DATA": null, "GLOBALID": "{477D2D03-E039-1593-E063-792F520A6D48}", "CREATED": null, "EDITED": null, "OBJECTID": 10452 }, "geometry": { "type": "Point", "coordinates": [ -76.971276241884581, 38.919393175145835 ] } },
{ "type": "Feature", "properties": { "NAME": "COSTCO PHARMACY #1120", "LICENSE_NUMBER": "RX1200022", "FACTYPE": null, "ADDRESS": "2441 MARKET STREET NE", "ADDRESSLINE2": null, "CITY": "Washington", "STATE": "DC", "ZIPCODE": "20018", "PHONE": "425-313-2860", "WARD": "Ward 5", "ANC": "ANC 5C", "SSL": "4327    0004", "SEASONAL": null, "H1N1": null, "XCOORD": 404303.72, "YCOORD": 139167.8, "MAR_ID": "309925", "GIS_ID": null, "GIS_LAST_MOD_DTTM": "2026-01-03T13:55:13Z", "SE_ANNO_CAD_DATA": null, "GLOBALID": "{477D2D03-E03A-1593-E063-792F520A6D48}", "CREATED": null, "EDITED": null, "OBJECTID": 10453 }, "geometry": { "type": "Point", "coordinates": [ -76.950373980569537, 38.92037861583816 ] } },
{ "type": "Feature", "properties": { "NAME": "DISTRICT OF COLUMBIA CVS PHARMACY, LLC", "LICENSE_NUMBER": "RX1800134", "FACTYPE": null, "ADDRESS": "1101 NEW YORK AVE NW", "ADDRESSLINE2": null, "CITY": "Washington", "STATE": "DC", "ZIPCODE": "20005", "PHONE": "401-765-1500", "WARD": "Ward 2", "ANC": "ANC 2C", "SSL": "0317    0841,0317    0027", "SEASONAL": null, "H1N1": null, "XCOORD": 397606.72, "YCOORD": 137093.55, "MAR_ID": "300316", "GIS_ID": null, "GIS_LAST_MOD_DTTM": "2026-01-03T13:55:13Z", "SE_ANNO_CAD_DATA": null, "GLOBALID": "{477D2D03-E03B-1593-E063-792F520A6D48}", "CREATED": null, "EDITED": null, "OBJECTID": 10454 }, "geometry": { "type": "Point", "coordinates": [ -77.027593140654062, 38.901700339289043 ] } },
{ "type": "Feature", "properties": { "NAME": "DISTRICT OF COLUMBIA CVS PHARMACY, LLC DBA CVS PHARMACY #1360", "LICENSE_NUMBER": "RX2100162", "FACTYPE": null, "ADDRESS": "2724 GOOD HOPE RD SE", "ADDRESSLINE2": null, "CITY": "Washington", "STATE": "DC", "ZIPCODE": "20020", "PHONE": "401-765-1500", "WARD": "Ward 7", "ANC": "ANC 7B", "SSL": null, "SEASONAL": null, "H1N1": null, "XCOORD": 402803.66, "YCOORD": 132499.74, "MAR_ID": "313186", "GIS_ID": null, "GIS_LAST_MOD_DTTM": "2026-01-03T13:55:13Z", "SE_ANNO_CAD_DATA": null, "GLOBALID": "{477D2D03-E03C-1593-E063-792F520A6D48}", "CREATED": null, "EDITED": null, "OBJECTID": 10455 }, "geometry": { "type": "Point", "coordinates": [ -76.967699111071596, 38.860316297799038 ] } },
{ "type": "Feature", "properties": { "NAME": "DISTRICT OF COLUMBIA CVS PHARMACY, LLC DBA CVS PHARMACY #11231", "LICENSE_NUMBER": "RX2000159", "FACTYPE": null, "ADDRESS": "15 I ST. SE", "ADDRESSLINE2": null, "CITY": "Washington", "STATE": "DC", "ZIPCODE": "20003", "PHONE": "401-765-1500", "WARD": "Ward 6", "ANC": "ANC 8F", "SSL": "0697N   0075", "SEASONAL": null, "H1N1": null, "XCOORD": 399293.14, "YCOORD": 134584.16, "MAR_ID": "313262", "GIS_ID": null, "GIS_LAST_MOD_DTTM": "2026-01-03T13:55:13Z", "SE_ANNO_CAD_DATA": null, "GLOBALID": "{477D2D03-E03D-1593-E063-792F520A6D48}", "CREATED": null, "EDITED": null, "OBJECTID": 10456 }, "geometry": { "type": "Point", "coordinates": [ -77.008148715277969, 38.879097786311284 ] } },
{ "type": "Feature", "properties": { "NAME": "DISTRICT OF COLUMBIA CVS PHARMACY, LLC DBA CVS/ PHARMACY #17333", "LICENSE_NUMBER": "RX0000103", "FACTYPE": null, "ADDRESS": "3100 14TH STREET NW", "ADDRESSLINE2": null, "CITY": "Washington", "STATE": "DC", "ZIPCODE": "20010", "PHONE": "401-765-1500", "WARD": "Ward 1", "ANC": "ANC 1A", "SSL": "2674    0721,2674    2001,2674    2002,2674    2003", "SEASONAL": null, "H1N1": null, "XCOORD": 397140.04, "YCOORD": 140158.41, "MAR_ID": "306304", "GIS_ID": null, "GIS_LAST_MOD_DTTM": "2026-01-03T13:55:13Z", "SE_ANNO_CAD_DATA": null, "GLOBALID": "{477D2D03-E03E-1593-E063-792F520A6D48}", "CREATED": null, "EDITED": null, "OBJECTID": 10457 }, "geometry": { "type": "Point", "coordinates": [ -77.03298601467985, 38.929308227973372 ] } },
{ "type": "Feature", "properties": { "NAME": "DUPONT CIRCLE PHARMACY", "LICENSE_NUMBER": "RX1700117", "FACTYPE": null, "ADDRESS": "1506 21ST STREET NW", "ADDRESSLINE2": "STE 100", "CITY": "Washington", "STATE": "DC", "ZIPCODE": "20036", "PHONE": "202-818-8070", "WARD": "Ward 2", "ANC": "ANC 2B", "SSL": "0067    0063", "SEASONAL": null, "H1N1": null, "XCOORD": 395935.9, "YCOORD": 138011.63, "MAR_ID": "276239", "GIS_ID": null, "GIS_LAST_MOD_DTTM": "2026-01-03T13:55:13Z", "SE_ANNO_CAD_DATA": null, "GLOBALID": "{477D2D03-E03F-1593-E063-792F520A6D48}", "CREATED": null, "EDITED": null, "OBJECTID": 10458 }, "geometry": { "type": "Point", "coordinates": [ -77.04686056973064, 38.90996458719988 ] } },
{ "type": "Feature", "properties": { "NAME": "DISTRICT OF COLUMBIA CVS PHARMACY DBA CVS/PHARMACY #1355", "LICENSE_NUMBER": "RX2100166", "FACTYPE": null, "ADDRESS": "2009- EIGHTH STREET, NW", "ADDRESSLINE2": null, "CITY": "Washington", "STATE": "DC", "ZIPCODE": "20001", "PHONE": "401-765-1500", "WARD": "Ward 1", "ANC": "ANC 1B", "SSL": "2877    1038", "SEASONAL": null, "H1N1": null, "XCOORD": 398033.11, "YCOORD": 138815.59, "MAR_ID": "242769", "GIS_ID": null, "GIS_LAST_MOD_DTTM": "2026-01-03T13:55:13Z", "SE_ANNO_CAD_DATA": null, "GLOBALID": "{477D2D03-E040-1593-E063-792F520A6D48}", "CREATED": null, "EDITED": null, "OBJECTID": 10459 }, "geometry": { "type": "Point", "coordinates": [ -77.022682449691871, 38.917214126718576 ] } },
{ "type": "Feature", "properties": { "NAME": "EXCEL PHARMACY", "LICENSE_NUMBER": "RX0000097", "FACTYPE": null, "ADDRESS": "3923 SOUTH CAPITOL STREET SW", "ADDRESSLINE2": "UNIT # A", "CITY": "Washington", "STATE": "DC", "ZIPCODE": "20032", "PHONE": "202-652-1776", "WARD": "Ward 8", "ANC": "ANC 8D", "SSL": "6150    0808", "SEASONAL": null, "H1N1": null, "XCOORD": 399255.38, "YCOORD": 129356.22, "MAR_ID": "276603", "GIS_ID": null, "GIS_LAST_MOD_DTTM": "2026-01-03T13:55:13Z", "SE_ANNO_CAD_DATA": null, "GLOBALID": "{477D2D03-E041-1593-E063-792F520A6D48}", "CREATED": null, "EDITED": null, "OBJECTID": 10460 }, "geometry": { "type": "Point", "coordinates": [ -77.008578229358847, 38.83200222880042 ] } },
{ "type": "Feature", "properties": { "NAME": "FORT LINCOLN PHARMACY & MEDICAL EQUIPMENT, LLC", "LICENSE_NUMBER": "RX1200023", "FACTYPE": null, "ADDRESS": "3180 BLADENSBURG RD NE", "ADDRESSLINE2": null, "CITY": "Washington", "STATE": "DC", "ZIPCODE": "20018", "PHONE": "202-269-0000", "WARD": "Ward 5", "ANC": "ANC 5C", "SSL": "4335    0070", "SEASONAL": null, "H1N1": null, "XCOORD": 403464.64, "YCOORD": 140209.3, "MAR_ID": "309469", "GIS_ID": null, "GIS_LAST_MOD_DTTM": "2026-01-03T13:55:13Z", "SE_ANNO_CAD_DATA": null, "GLOBALID": "{477D2D03-E042-1593-E063-792F520A6D48}", "CREATED": null, "EDITED": null, "OBJECTID": 10461 }, "geometry": { "type": "Point", "coordinates": [ -76.960044565506777, 38.929764487434532 ] } },
{ "type": "Feature", "properties": { "NAME": "G W MEDICAL FACULTY ASSOCIATES PHARMACY", "LICENSE_NUMBER": "RX0000301", "FACTYPE": null, "ADDRESS": "2150 PENNSYLVANIA AVE NW", "ADDRESSLINE2": "G201", "CITY": "Washington", "STATE": "DC", "ZIPCODE": "20037", "PHONE": "202-741-2218", "WARD": "Ward 2", "ANC": "ANC 2A", "SSL": "0075    0048", "SEASONAL": null, "H1N1": null, "XCOORD": 395788.2, "YCOORD": 137086.96, "MAR_ID": "242494", "GIS_ID": null, "GIS_LAST_MOD_DTTM": "2026-01-03T13:55:13Z", "SE_ANNO_CAD_DATA": null, "GLOBALID": "{477D2D03-E043-1593-E063-792F520A6D48}", "CREATED": null, "EDITED": null, "OBJECTID": 10462 }, "geometry": { "type": "Point", "coordinates": [ -77.04855785065574, 38.901634141134011 ] } },
{ "type": "Feature", "properties": { "NAME": "GENOA HEALTHCARE LLC", "LICENSE_NUMBER": "RX1800122", "FACTYPE": null, "ADDRESS": "801 PENNSYLVANIA AVE SE", "ADDRESSLINE2": "SUITE 120", "CITY": "Washington", "STATE": "DC", "ZIPCODE": "20003", "PHONE": "763-330-5827", "WARD": "Ward 6", "ANC": "ANC 6B", "SSL": "0925    0026", "SEASONAL": null, "H1N1": null, "XCOORD": 400473.97, "YCOORD": 135089.14, "MAR_ID": "280150", "GIS_ID": null, "GIS_LAST_MOD_DTTM": "2026-01-03T13:55:13Z", "SE_ANNO_CAD_DATA": null, "GLOBALID": "{477D2D03-E044-1593-E063-792F520A6D48}", "CREATED": null, "EDITED": null, "OBJECTID": 10463 }, "geometry": { "type": "Point", "coordinates": [ -76.994539516173589, 38.883646999902886 ] } },
{ "type": "Feature", "properties": { "NAME": "GEORGE WASHINGTON UNIVERSITY HOSPITAL PHARMACY", "LICENSE_NUMBER": "RX0600343", "FACTYPE": null, "ADDRESS": "900 23RD ST NW", "ADDRESSLINE2": "RM B1018", "CITY": "Washington", "STATE": "DC", "ZIPCODE": "20037", "PHONE": "202-715-5037", "WARD": "Ward 2", "ANC": "ANC 2A", "SSL": "0040    0036", "SEASONAL": null, "H1N1": null, "XCOORD": 395601.0, "YCOORD": 137051.73, "MAR_ID": "242349", "GIS_ID": null, "GIS_LAST_MOD_DTTM": "2026-01-03T13:55:13Z", "SE_ANNO_CAD_DATA": null, "GLOBALID": "{477D2D03-E045-1593-E063-792F520A6D48}", "CREATED": null, "EDITED": null, "OBJECTID": 10464 }, "geometry": { "type": "Point", "coordinates": [ -77.050715752250724, 38.901315859757389 ] } },
{ "type": "Feature", "properties": { "NAME": "GIANT #2376", "LICENSE_NUMBER": "RX0000057", "FACTYPE": null, "ADDRESS": "1400 7TH STREET NW", "ADDRESSLINE2": null, "CITY": "Washington", "STATE": "DC", "ZIPCODE": "20001", "PHONE": "717-240-7541", "WARD": "Ward 2", "ANC": "ANC 2G", "SSL": "0398    0836,0398    0032,0398    7002", "SEASONAL": null, "H1N1": null, "XCOORD": 398072.44, "YCOORD": 137896.34, "MAR_ID": "304153", "GIS_ID": null, "GIS_LAST_MOD_DTTM": "2026-01-03T13:55:13Z", "SE_ANNO_CAD_DATA": null, "GLOBALID": "{477D2D03-E046-1593-E063-792F520A6D48}", "CREATED": null, "EDITED": null, "OBJECTID": 10465 }, "geometry": { "type": "Point", "coordinates": [ -77.022226355323767, 38.908933298538457 ] } },
{ "type": "Feature", "properties": { "NAME": "GIANT PHARMACY #375", "LICENSE_NUMBER": "RX0200327", "FACTYPE": null, "ADDRESS": "1050 BRENTWOOD RD NE", "ADDRESSLINE2": null, "CITY": "Washington", "STATE": "DC", "ZIPCODE": "20018", "PHONE": "717-240-7541", "WARD": "Ward 5", "ANC": "ANC 5C", "SSL": "3854    0802", "SEASONAL": null, "H1N1": null, "XCOORD": 400658.91, "YCOORD": 139038.2, "MAR_ID": "299835", "GIS_ID": null, "GIS_LAST_MOD_DTTM": "2026-01-03T13:55:13Z", "SE_ANNO_CAD_DATA": null, "GLOBALID": "{477D2D03-E047-1593-E063-792F520A6D48}", "CREATED": null, "EDITED": null, "OBJECTID": 10466 }, "geometry": { "type": "Point", "coordinates": [ -76.992404194281718, 38.919221426291728 ] } },
{ "type": "Feature", "properties": { "NAME": "GIANT PHARMACY #378", "LICENSE_NUMBER": "RX0500335", "FACTYPE": null, "ADDRESS": "1345 PARK RD NW", "ADDRESSLINE2": null, "CITY": "Washington", "STATE": "DC", "ZIPCODE": "20010", "PHONE": "717-240-7541", "WARD": "Ward 1", "ANC": "ANC 1A", "SSL": "2837    0079", "SEASONAL": null, "H1N1": null, "XCOORD": 397256.1, "YCOORD": 140354.73, "MAR_ID": "297595", "GIS_ID": null, "GIS_LAST_MOD_DTTM": "2026-01-03T13:55:13Z", "SE_ANNO_CAD_DATA": null, "GLOBALID": "{477D2D03-E048-1593-E063-792F520A6D48}", "CREATED": null, "EDITED": null, "OBJECTID": 10467 }, "geometry": { "type": "Point", "coordinates": [ -77.031648287487386, 38.931077109489983 ] } },
{ "type": "Feature", "properties": { "NAME": "GIANT PHARMACY #384", "LICENSE_NUMBER": "RX0700353", "FACTYPE": null, "ADDRESS": "1535 ALABAMA AVE SE", "ADDRESSLINE2": null, "CITY": "Washington", "STATE": "DC", "ZIPCODE": "20032", "PHONE": "717-240-7541", "WARD": "Ward 8", "ANC": "ANC 8E", "SSL": "5912    0818,5912    0089", "SEASONAL": null, "H1N1": null, "XCOORD": 401647.46, "YCOORD": 130789.95, "MAR_ID": "306557", "GIS_ID": null, "GIS_LAST_MOD_DTTM": "2026-01-03T13:55:13Z", "SE_ANNO_CAD_DATA": null, "GLOBALID": "{477D2D03-E049-1593-E063-792F520A6D48}", "CREATED": null, "EDITED": null, "OBJECTID": 10468 }, "geometry": { "type": "Point", "coordinates": [ -76.98102469370312, 38.844916693561686 ] } },
{ "type": "Feature", "properties": { "NAME": "GRUBB'S CARE PHARMACY", "LICENSE_NUMBER": "RX8800077", "FACTYPE": null, "ADDRESS": "326 EAST CAPITOL ST NE", "ADDRESSLINE2": null, "CITY": "Washington", "STATE": "DC", "ZIPCODE": "20003", "PHONE": "202-503-3262", "WARD": "Ward 6", "ANC": "ANC 6C", "SSL": "0786    0031", "SEASONAL": null, "H1N1": null, "XCOORD": 399932.79, "YCOORD": 135805.42, "MAR_ID": "37469", "GIS_ID": null, "GIS_LAST_MOD_DTTM": "2026-01-03T13:55:13Z", "SE_ANNO_CAD_DATA": null, "GLOBALID": "{477D2D03-E04A-1593-E063-792F520A6D48}", "CREATED": null, "EDITED": null, "OBJECTID": 10469 }, "geometry": { "type": "Point", "coordinates": [ -77.000776985411832, 38.89009964816028 ] } },
{ "type": "Feature", "properties": { "NAME": "GRUBB'S PHARMACY SE INC", "LICENSE_NUMBER": "RX1200011", "FACTYPE": null, "ADDRESS": "1800 MLK JR AVE SE", "ADDRESSLINE2": null, "CITY": "Washington", "STATE": "DC", "ZIPCODE": "20020", "PHONE": "202-503-3610", "WARD": "Ward 8", "ANC": "ANC 8A", "SSL": "5601    0056", "SEASONAL": null, "H1N1": null, "XCOORD": 401036.42, "YCOORD": 133305.38, "MAR_ID": "56153", "GIS_ID": null, "GIS_LAST_MOD_DTTM": "2026-01-03T13:55:13Z", "SE_ANNO_CAD_DATA": null, "GLOBALID": "{477D2D03-E04B-1593-E063-792F520A6D48}", "CREATED": null, "EDITED": null, "OBJECTID": 10470 }, "geometry": { "type": "Point", "coordinates": [ -76.988059657513944, 38.867577695748487 ] } },
{ "type": "Feature", "properties": { "NAME": "HARRIS TEETER #352", "LICENSE_NUMBER": "RX0000061", "FACTYPE": null, "ADDRESS": "1201 1ST ST NE", "ADDRESSLINE2": null, "CITY": "Washington", "STATE": "DC", "ZIPCODE": "20002", "PHONE": "513-782-1090", "WARD": "Ward 6", "ANC": "ANC 6E", "SSL": "0711    0816,0711    0160,0711    7002", "SEASONAL": null, "H1N1": null, "XCOORD": 399513.61, "YCOORD": 137563.9, "MAR_ID": "303728", "GIS_ID": null, "GIS_LAST_MOD_DTTM": "2026-01-03T13:55:13Z", "SE_ANNO_CAD_DATA": null, "GLOBALID": "{477D2D03-E04C-1593-E063-792F520A6D48}", "CREATED": null, "EDITED": null, "OBJECTID": 10471 }, "geometry": { "type": "Point", "coordinates": [ -77.005609949742166, 38.905940542938751 ] } },
{ "type": "Feature", "properties": { "NAME": "HARRIS TEETER PHARMACY #231", "LICENSE_NUMBER": "RX0000063", "FACTYPE": null, "ADDRESS": "1631 KALORAMA RD NW STE 100", "ADDRESSLINE2": "STE 100", "CITY": "Washington", "STATE": "DC", "ZIPCODE": "20009", "PHONE": "513-782-1090", "WARD": "Ward 1", "ANC": "ANC 1C", "SSL": "2572    0036", "SEASONAL": null, "H1N1": null, "XCOORD": 396664.71, "YCOORD": 139344.49, "MAR_ID": "284059", "GIS_ID": null, "GIS_LAST_MOD_DTTM": "2026-01-03T13:55:13Z", "SE_ANNO_CAD_DATA": null, "GLOBALID": "{477D2D03-E04D-1593-E063-792F520A6D48}", "CREATED": null, "EDITED": null, "OBJECTID": 10472 }, "geometry": { "type": "Point", "coordinates": [ -77.038464008165349, 38.921974502541197 ] } },
{ "type": "Feature", "properties": { "NAME": "HSC PEDIATRIC CENTER PHARMACY", "LICENSE_NUMBER": "RX8800066", "FACTYPE": null, "ADDRESS": "1731 BUNKER HILL RD NE", "ADDRESSLINE2": null, "CITY": "Washington", "STATE": "DC", "ZIPCODE": "20017", "PHONE": "202-635-6164", "WARD": "Ward 5", "ANC": "ANC 5B", "SSL": "4163    0004", "SEASONAL": null, "H1N1": null, "XCOORD": 401643.81, "YCOORD": 141497.68, "MAR_ID": "286452", "GIS_ID": null, "GIS_LAST_MOD_DTTM": "2026-01-03T13:55:13Z", "SE_ANNO_CAD_DATA": null, "GLOBALID": "{477D2D03-E04E-1593-E063-792F520A6D48}", "CREATED": null, "EDITED": null, "OBJECTID": 10473 }, "geometry": { "type": "Point", "coordinates": [ -76.981041125435809, 38.941375894388948 ] } },
{ "type": "Feature", "properties": { "NAME": "HOWARD UNIVERSITY HOSPITAL CORP.", "LICENSE_NUMBER": "RX240000120", "FACTYPE": null, "ADDRESS": "2041 GEORGIA AVE NW", "ADDRESSLINE2": null, "CITY": "Washington", "STATE": "DC", "ZIPCODE": "20060", "PHONE": "202-865-4479", "WARD": "Ward 1", "ANC": "ANC 1B", "SSL": "3075    0807", "SEASONAL": null, "H1N1": null, "XCOORD": 398185.74, "YCOORD": 138881.73, "MAR_ID": "279523", "GIS_ID": null, "GIS_LAST_MOD_DTTM": "2026-01-03T13:55:13Z", "SE_ANNO_CAD_DATA": null, "GLOBALID": "{477D2D03-E04F-1593-E063-792F520A6D48}", "CREATED": null, "EDITED": null, "OBJECTID": 10474 }, "geometry": { "type": "Point", "coordinates": [ -77.020922651413656, 38.917810266164985 ] } },
{ "type": "Feature", "properties": { "NAME": "HOWARD UNIVERSITY INVESTIGATIONAL DRUG SERVICES", "LICENSE_NUMBER": "RX240000126", "FACTYPE": null, "ADDRESS": "SEELY  G. MUDD BUILDING/ 520 W STREET NW", "ADDRESSLINE2": "ROOM 3031/32 AND 3033/34", "CITY": "Washington", "STATE": "DC", "ZIPCODE": "20059", "PHONE": "202-865-7229", "WARD": "Ward 1", "ANC": "ANC 1E", "SSL": "3075    0807", "SEASONAL": null, "H1N1": null, "XCOORD": 398259.63, "YCOORD": 138998.25, "MAR_ID": "291435", "GIS_ID": null, "GIS_LAST_MOD_DTTM": "2026-01-03T13:55:13Z", "SE_ANNO_CAD_DATA": null, "GLOBALID": "{477D2D03-E050-1593-E063-792F520A6D48}", "CREATED": null, "EDITED": null, "OBJECTID": 10475 }, "geometry": { "type": "Point", "coordinates": [ -77.020070915802407, 38.918860066245472 ] } },
{ "type": "Feature", "properties": { "NAME": "KAISER PERMANENTE CAPITOL HILL PHARMACY", "LICENSE_NUMBER": "RX1000427", "FACTYPE": null, "ADDRESS": "700 2ND ST NE", "ADDRESSLINE2": "STE L18", "CITY": "Washington", "STATE": "DC", "ZIPCODE": "20002", "PHONE": "443-280-7365", "WARD": "Ward 6", "ANC": "ANC 6C", "SSL": "0720    0826,0720    0180", "SEASONAL": null, "H1N1": null, "XCOORD": 399657.88, "YCOORD": 136821.81, "MAR_ID": "307352", "GIS_ID": null, "GIS_LAST_MOD_DTTM": "2026-01-03T13:55:13Z", "SE_ANNO_CAD_DATA": null, "GLOBALID": "{477D2D03-E051-1593-E063-792F520A6D48}", "CREATED": null, "EDITED": null, "OBJECTID": 10476 }, "geometry": { "type": "Point", "coordinates": [ -77.003946268467644, 38.899255600032625 ] } },
{ "type": "Feature", "properties": { "NAME": "KAISER PERMANENTE NORTHWEST DC PHARMACY", "LICENSE_NUMBER": "RX1200017", "FACTYPE": null, "ADDRESS": "2301 M STREET NW", "ADDRESSLINE2": "STE 200", "CITY": "Washington", "STATE": "DC", "ZIPCODE": "20037", "PHONE": "443-280-7365", "WARD": "Ward 2", "ANC": "ANC 2A", "SSL": "0036    0846,0036    0046,0036    7000", "SEASONAL": null, "H1N1": null, "XCOORD": 395632.62, "YCOORD": 137514.24, "MAR_ID": "242336", "GIS_ID": null, "GIS_LAST_MOD_DTTM": "2026-01-03T13:55:13Z", "SE_ANNO_CAD_DATA": null, "GLOBALID": "{477D2D03-E052-1593-E063-792F520A6D48}", "CREATED": null, "EDITED": null, "OBJECTID": 10477 }, "geometry": { "type": "Point", "coordinates": [ -77.050354165270974, 38.905482470981795 ] } },
{ "type": "Feature", "properties": { "NAME": "KALORAMA CARE PHARMACY", "LICENSE_NUMBER": "RX1700118", "FACTYPE": null, "ADDRESS": "1841 COLUMBIA RD NW", "ADDRESSLINE2": null, "CITY": "Washington", "STATE": "DC", "ZIPCODE": "20009", "PHONE": "202-795-9711", "WARD": "Ward 1", "ANC": "ANC 1C", "SSL": "2549    0877,2549    0028", "SEASONAL": null, "H1N1": null, "XCOORD": 396198.82, "YCOORD": 139291.54, "MAR_ID": "235380", "GIS_ID": null, "GIS_LAST_MOD_DTTM": "2026-01-03T13:55:13Z", "SE_ANNO_CAD_DATA": null, "GLOBALID": "{477D2D03-E053-1593-E063-792F520A6D48}", "CREATED": null, "EDITED": null, "OBJECTID": 10478 }, "geometry": { "type": "Point", "coordinates": [ -77.043836240172141, 38.921495619876616 ] } },
{ "type": "Feature", "properties": { "NAME": "KINGDOM PHARMACY, LLC", "LICENSE_NUMBER": "RX250000128", "FACTYPE": null, "ADDRESS": "2910 MARTIN LUTHER KING JR. AVENUE SE", "ADDRESSLINE2": null, "CITY": "Washington", "STATE": "DC", "ZIPCODE": "20032", "PHONE": "240-246-6671", "WARD": "Ward 8", "ANC": "ANC 8C", "SSL": "5951    0804,5951    0011", "SEASONAL": null, "H1N1": null, "XCOORD": 400298.08, "YCOORD": 130877.2, "MAR_ID": "43428", "GIS_ID": null, "GIS_LAST_MOD_DTTM": "2026-01-03T13:55:13Z", "SE_ANNO_CAD_DATA": null, "GLOBALID": "{477D2D03-E054-1593-E063-792F520A6D48}", "CREATED": null, "EDITED": null, "OBJECTID": 10479 }, "geometry": { "type": "Point", "coordinates": [ -76.996568569343026, 38.845704171880598 ] } },
{ "type": "Feature", "properties": { "NAME": "MARY'S CENTER FOR MATERNAL AND CHILD CARE, INC DBA", "LICENSE_NUMBER": "RX0000112", "FACTYPE": null, "ADDRESS": "3912 GEORGIA AVENUE NW", "ADDRESSLINE2": null, "CITY": "Washington", "STATE": "DC", "ZIPCODE": "20011", "PHONE": "806-324-5400", "WARD": "Ward 4", "ANC": "ANC 4C", "SSL": "2906    0854,2906    0091,2906    7000", "SEASONAL": null, "H1N1": null, "XCOORD": 397823.06, "YCOORD": 141262.62, "MAR_ID": "224825", "GIS_ID": null, "GIS_LAST_MOD_DTTM": "2026-01-03T13:55:13Z", "SE_ANNO_CAD_DATA": null, "GLOBALID": "{477D2D03-E055-1593-E063-792F520A6D48}", "CREATED": null, "EDITED": null, "OBJECTID": 10480 }, "geometry": { "type": "Point", "coordinates": [ -77.025112294158419, 38.939257244181142 ] } },
{ "type": "Feature", "properties": { "NAME": "MEDSTAR GEORGETOWN UNIVERSITY HOSPITAL PHARMACY", "LICENSE_NUMBER": "RX1200007", "FACTYPE": null, "ADDRESS": "3800 RESERVOIR RD NW", "ADDRESSLINE2": null, "CITY": "Washington", "STATE": "DC", "ZIPCODE": "20007", "PHONE": "202-444-1522", "WARD": "Ward 2", "ANC": "ANC 2E", "SSL": "1321    0824,1321    0001", "SEASONAL": null, "H1N1": null, "XCOORD": 393468.94, "YCOORD": 138241.62, "MAR_ID": "291547", "GIS_ID": null, "GIS_LAST_MOD_DTTM": "2026-01-03T13:55:13Z", "SE_ANNO_CAD_DATA": null, "GLOBALID": "{477D2D03-E056-1593-E063-792F520A6D48}", "CREATED": null, "EDITED": null, "OBJECTID": 10481 }, "geometry": { "type": "Point", "coordinates": [ -77.075306317641648, 38.912021544808212 ] } },
{ "type": "Feature", "properties": { "NAME": "MEDSTAR NATIONAL REHABILITATION HOSPITAL", "LICENSE_NUMBER": "RX1200012", "FACTYPE": null, "ADDRESS": "102 IRVING STREET NW", "ADDRESSLINE2": null, "CITY": "Washington", "STATE": "DC", "ZIPCODE": "20010", "PHONE": "202-877-1731", "WARD": "Ward 5", "ANC": "ANC 5E", "SSL": "3129    0804,3129    0002", "SEASONAL": null, "H1N1": null, "XCOORD": 398843.03, "YCOORD": 140295.86, "MAR_ID": "243364", "GIS_ID": null, "GIS_LAST_MOD_DTTM": "2026-01-03T13:55:13Z", "SE_ANNO_CAD_DATA": null, "GLOBALID": "{477D2D03-E057-1593-E063-792F520A6D48}", "CREATED": null, "EDITED": null, "OBJECTID": 10482 }, "geometry": { "type": "Point", "coordinates": [ -77.01334577601466, 38.930550313640751 ] } },
{ "type": "Feature", "properties": { "NAME": "MEDSTAR PHARMACY #5", "LICENSE_NUMBER": "RX1200013", "FACTYPE": null, "ADDRESS": "106 IRVING ST NW", "ADDRESSLINE2": "STE 1200", "CITY": "Washington", "STATE": "DC", "ZIPCODE": "20010", "PHONE": "410-540-4492", "WARD": "Ward 5", "ANC": "ANC 5E", "SSL": "3129    0804,3129    0002", "SEASONAL": null, "H1N1": null, "XCOORD": 398751.95, "YCOORD": 140165.35, "MAR_ID": "301960", "GIS_ID": null, "GIS_LAST_MOD_DTTM": "2026-01-03T13:55:13Z", "SE_ANNO_CAD_DATA": null, "GLOBALID": "{477D2D03-E058-1593-E063-792F520A6D48}", "CREATED": null, "EDITED": null, "OBJECTID": 10483 }, "geometry": { "type": "Point", "coordinates": [ -77.014395976488387, 38.929374514336146 ] } },
{ "type": "Feature", "properties": { "NAME": "MEDSTAR PHARMACY #10", "LICENSE_NUMBER": "RX1200014", "FACTYPE": null, "ADDRESS": "3800 RESERVOIR RD NW", "ADDRESSLINE2": null, "CITY": "Washington", "STATE": "DC", "ZIPCODE": "20007", "PHONE": "410-540-4492", "WARD": "Ward 2", "ANC": "ANC 2E", "SSL": "1321    0824,1321    0001", "SEASONAL": null, "H1N1": null, "XCOORD": 393468.94, "YCOORD": 138241.62, "MAR_ID": "291547", "GIS_ID": null, "GIS_LAST_MOD_DTTM": "2026-01-03T13:55:13Z", "SE_ANNO_CAD_DATA": null, "GLOBALID": "{477D2D03-E059-1593-E063-792F520A6D48}", "CREATED": null, "EDITED": null, "OBJECTID": 10484 }, "geometry": { "type": "Point", "coordinates": [ -77.075306317641648, 38.912021544808212 ] } },
{ "type": "Feature", "properties": { "NAME": "MEDSTAR WASHINGTON HOSPITAL CENTER", "LICENSE_NUMBER": "RX1200006", "FACTYPE": null, "ADDRESS": "110 IRVING ST NW", "ADDRESSLINE2": "110 IRVING ST NW", "CITY": "Washington", "STATE": "DC", "ZIPCODE": "20010", "PHONE": "202-877-6747", "WARD": "Ward 5", "ANC": "ANC 5E", "SSL": "3129    0804,3129    0002", "SEASONAL": null, "H1N1": null, "XCOORD": 398583.14, "YCOORD": 140184.87, "MAR_ID": "228314", "GIS_ID": null, "GIS_LAST_MOD_DTTM": "2026-01-03T13:55:13Z", "SE_ANNO_CAD_DATA": null, "GLOBALID": "{477D2D03-E05A-1593-E063-792F520A6D48}", "CREATED": null, "EDITED": null, "OBJECTID": 10485 }, "geometry": { "type": "Point", "coordinates": [ -77.016342893087398, 38.929550100515328 ] } },
{ "type": "Feature", "properties": { "NAME": "METRO CARE PHARMACY", "LICENSE_NUMBER": "RX1200004", "FACTYPE": null, "ADDRESS": "6323 GEORGIA AVE NW", "ADDRESSLINE2": "SUITE 5", "CITY": "Washington", "STATE": "DC", "ZIPCODE": "20011", "PHONE": "202-722-0171", "WARD": "Ward 4", "ANC": "ANC 4B", "SSL": "2978    0040", "SEASONAL": null, "H1N1": null, "XCOORD": 397650.13, "YCOORD": 144332.45, "MAR_ID": "254165", "GIS_ID": null, "GIS_LAST_MOD_DTTM": "2026-01-03T13:55:13Z", "SE_ANNO_CAD_DATA": null, "GLOBALID": "{477D2D03-E05B-1593-E063-792F520A6D48}", "CREATED": null, "EDITED": null, "OBJECTID": 10486 }, "geometry": { "type": "Point", "coordinates": [ -77.027117481743659, 38.966910656985618 ] } },
{ "type": "Feature", "properties": { "NAME": "MFA INVESTIGATIONAL DRUG SERVICE PHARMACY", "LICENSE_NUMBER": "RX1900141", "FACTYPE": null, "ADDRESS": "2150 PENNSYLVANIA AVE NW", "ADDRESSLINE2": "STE 6A-404", "CITY": "Washington", "STATE": "DC", "ZIPCODE": "20037", "PHONE": "202-741-2218", "WARD": "Ward 2", "ANC": "ANC 2A", "SSL": "0075    0048", "SEASONAL": null, "H1N1": null, "XCOORD": 395788.2, "YCOORD": 137086.96, "MAR_ID": "242494", "GIS_ID": null, "GIS_LAST_MOD_DTTM": "2026-01-03T13:55:13Z", "SE_ANNO_CAD_DATA": null, "GLOBALID": "{477D2D03-E05C-1593-E063-792F520A6D48}", "CREATED": null, "EDITED": null, "OBJECTID": 10487 }, "geometry": { "type": "Point", "coordinates": [ -77.04855785065574, 38.901634141134011 ] } },
{ "type": "Feature", "properties": { "NAME": "MORTON 8TH ST. PHARMACY", "LICENSE_NUMBER": "RX0000106", "FACTYPE": null, "ADDRESS": "724 EAST CAPITOL ST NE", "ADDRESSLINE2": null, "CITY": "Washington", "STATE": "DC", "ZIPCODE": "20003", "PHONE": "443-928-6513", "WARD": "Ward 6", "ANC": "ANC 6C", "SSL": "0897    0800,0897    0001", "SEASONAL": null, "H1N1": null, "XCOORD": 400418.43, "YCOORD": 135800.77, "MAR_ID": "77931", "GIS_ID": null, "GIS_LAST_MOD_DTTM": "2026-01-03T13:55:13Z", "SE_ANNO_CAD_DATA": null, "GLOBALID": "{477D2D03-E05D-1593-E063-792F520A6D48}", "CREATED": null, "EDITED": null, "OBJECTID": 10488 }, "geometry": { "type": "Point", "coordinates": [ -76.995179212443361, 38.890057662414442 ] } },
{ "type": "Feature", "properties": { "NAME": "MT. PLEASANT CARE PHARMACY", "LICENSE_NUMBER": "RX250000129", "FACTYPE": null, "ADDRESS": "3169 MOUNT PLEASANT ST NW", "ADDRESSLINE2": null, "CITY": "Washington", "STATE": "DC", "ZIPCODE": "20010", "PHONE": "202-387-3100", "WARD": "Ward 1", "ANC": "ANC 1D", "SSL": "2595    1037", "SEASONAL": null, "H1N1": null, "XCOORD": 396713.16, "YCOORD": 140329.69, "MAR_ID": "236420", "GIS_ID": null, "GIS_LAST_MOD_DTTM": "2026-01-03T13:55:13Z", "SE_ANNO_CAD_DATA": null, "GLOBALID": "{477D2D03-E05E-1593-E063-792F520A6D48}", "CREATED": null, "EDITED": null, "OBJECTID": 10489 }, "geometry": { "type": "Point", "coordinates": [ -77.037910013297875, 38.930849677972326 ] } },
{ "type": "Feature", "properties": { "NAME": "MEDITEC PHARMACY LLC", "LICENSE_NUMBER": "RX250000135", "FACTYPE": null, "ADDRESS": "1037 BLADENSBURG RD. NE UNIT C-2", "ADDRESSLINE2": null, "CITY": "Washington", "STATE": "DC", "ZIPCODE": "20002", "PHONE": "202-990-8430", "WARD": "Ward 5", "ANC": "ANC 5D", "SSL": "4473    0131,4473    2002", "SEASONAL": null, "H1N1": null, "XCOORD": 401654.92, "YCOORD": 137296.35, "MAR_ID": "299833", "GIS_ID": null, "GIS_LAST_MOD_DTTM": "2026-01-03T13:55:13Z", "SE_ANNO_CAD_DATA": null, "GLOBALID": "{477D2D03-E05F-1593-E063-792F520A6D48}", "CREATED": null, "EDITED": null, "OBJECTID": 10490 }, "geometry": { "type": "Point", "coordinates": [ -76.980923099013566, 38.903528935802761 ] } },
{ "type": "Feature", "properties": { "NAME": "MT. PLEASANT CARE PHARMACY", "LICENSE_NUMBER": "RX2000148", "FACTYPE": null, "ADDRESS": "3169 MT. PLEASANT STREET, NW", "ADDRESSLINE2": null, "CITY": "Washington", "STATE": "DC", "ZIPCODE": "20010", "PHONE": "202-387-3100", "WARD": "Ward 1", "ANC": "ANC 1D", "SSL": "2595    1037", "SEASONAL": null, "H1N1": null, "XCOORD": 396713.16, "YCOORD": 140329.69, "MAR_ID": "236420", "GIS_ID": null, "GIS_LAST_MOD_DTTM": "2026-01-03T13:55:13Z", "SE_ANNO_CAD_DATA": null, "GLOBALID": "{477D2D03-E060-1593-E063-792F520A6D48}", "CREATED": null, "EDITED": null, "OBJECTID": 10491 }, "geometry": { "type": "Point", "coordinates": [ -77.037910013297875, 38.930849677972326 ] } },
{ "type": "Feature", "properties": { "NAME": "NAI SATURN EASTERN LLC DBA SAFEWAY PHARMACY # 3217", "LICENSE_NUMBER": "RX2000158", "FACTYPE": null, "ADDRESS": "415 14TH STREET SE", "ADDRESSLINE2": null, "CITY": "Washington", "STATE": "DC", "ZIPCODE": "20003", "PHONE": "208-395-4303", "WARD": "Ward 6", "ANC": "ANC 6B", "SSL": "1042    0829,1042    0109,1042    7000", "SEASONAL": null, "H1N1": null, "XCOORD": 401231.56, "YCOORD": 135117.92, "MAR_ID": "26239", "GIS_ID": null, "GIS_LAST_MOD_DTTM": "2026-01-03T13:55:13Z", "SE_ANNO_CAD_DATA": null, "GLOBALID": "{477D2D03-E061-1593-E063-792F520A6D48}", "CREATED": null, "EDITED": null, "OBJECTID": 10492 }, "geometry": { "type": "Point", "coordinates": [ -76.985807820995035, 38.883905526798983 ] } },
{ "type": "Feature", "properties": { "NAME": "NAI SATURN EASTERN LLC DBA SAFEWAY PHARMACY #1276", "LICENSE_NUMBER": "RX0000072", "FACTYPE": null, "ADDRESS": "6500 PINEY BRANCH RD NW", "ADDRESSLINE2": null, "CITY": "Washington", "STATE": "DC", "ZIPCODE": "20012", "PHONE": "208-395-4303", "WARD": "Ward 4", "ANC": "ANC 4B", "SSL": "2974    0020", "SEASONAL": null, "H1N1": null, "XCOORD": 397698.6, "YCOORD": 144627.04, "MAR_ID": "285341", "GIS_ID": null, "GIS_LAST_MOD_DTTM": "2026-01-03T13:55:13Z", "SE_ANNO_CAD_DATA": null, "GLOBALID": "{477D2D03-E062-1593-E063-792F520A6D48}", "CREATED": null, "EDITED": null, "OBJECTID": 10493 }, "geometry": { "type": "Point", "coordinates": [ -77.026559174586552, 38.969564523789188 ] } },
{ "type": "Feature", "properties": { "NAME": "NAI SATURN EASTERN LLC DBA SAFEWAY PHARMACY #1445", "LICENSE_NUMBER": "RX0000074", "FACTYPE": null, "ADDRESS": "2845 ALABAMA AVE SE", "ADDRESSLINE2": null, "CITY": "Washington", "STATE": "DC", "ZIPCODE": "20020", "PHONE": "208-395-4303", "WARD": "Ward 7", "ANC": "ANC 7B", "SSL": "5642    0001", "SEASONAL": null, "H1N1": null, "XCOORD": 402892.75, "YCOORD": 132357.23, "MAR_ID": "278282", "GIS_ID": null, "GIS_LAST_MOD_DTTM": "2026-01-03T13:55:13Z", "SE_ANNO_CAD_DATA": null, "GLOBALID": "{477D2D03-E063-1593-E063-792F520A6D48}", "CREATED": null, "EDITED": null, "OBJECTID": 10494 }, "geometry": { "type": "Point", "coordinates": [ -76.96667323466005, 38.859032219038944 ] } },
{ "type": "Feature", "properties": { "NAME": "NAI SATURN EASTERN LLC DBA SAFEWAY PHARMACY #2737", "LICENSE_NUMBER": "RX0000075", "FACTYPE": null, "ADDRESS": "490 L ST NW", "ADDRESSLINE2": null, "CITY": "Washington", "STATE": "DC", "ZIPCODE": "20001", "PHONE": "208-395-4303", "WARD": "Ward 6", "ANC": "ANC 6E", "SSL": "0515    0158", "SEASONAL": null, "H1N1": null, "XCOORD": 398408.1, "YCOORD": 137292.77, "MAR_ID": "304767", "GIS_ID": null, "GIS_LAST_MOD_DTTM": "2026-01-03T13:55:13Z", "SE_ANNO_CAD_DATA": null, "GLOBALID": "{477D2D03-E064-1593-E063-792F520A6D48}", "CREATED": null, "EDITED": null, "OBJECTID": 10495 }, "geometry": { "type": "Point", "coordinates": [ -77.018354917404523, 38.903496800889855 ] } },
{ "type": "Feature", "properties": { "NAME": "NAI SATURN EASTERN LLC DBA SAFEWAY PHARMACY #2808", "LICENSE_NUMBER": "RX0000076", "FACTYPE": null, "ADDRESS": "3830 GEORGIA AVE NW", "ADDRESSLINE2": null, "CITY": "Washington", "STATE": "DC", "ZIPCODE": "20011", "PHONE": "208-395-4303", "WARD": "Ward 4", "ANC": "ANC 4C", "SSL": "2905    0814,2905    0040,2905    7000", "SEASONAL": null, "H1N1": null, "XCOORD": 397845.01, "YCOORD": 141173.71, "MAR_ID": "225076", "GIS_ID": null, "GIS_LAST_MOD_DTTM": "2026-01-03T13:55:13Z", "SE_ANNO_CAD_DATA": null, "GLOBALID": "{477D2D03-E065-1593-E063-792F520A6D48}", "CREATED": null, "EDITED": null, "OBJECTID": 10496 }, "geometry": { "type": "Point", "coordinates": [ -77.024858831662655, 38.938456370779363 ] } },
{ "type": "Feature", "properties": { "NAME": "NAI SATURN EASTERN LLC DBA SAFEWAY PHARMACY #2892", "LICENSE_NUMBER": "RX0000077", "FACTYPE": null, "ADDRESS": "1100 4TH ST SW", "ADDRESSLINE2": "STE 150", "CITY": "Washington", "STATE": "DC", "ZIPCODE": "20024", "PHONE": "208-395-4303", "WARD": "Ward 6", "ANC": "ANC 6D", "SSL": "0542    0872,0542    0089", "SEASONAL": null, "H1N1": null, "XCOORD": 398511.05, "YCOORD": 134420.39, "MAR_ID": "307170", "GIS_ID": null, "GIS_LAST_MOD_DTTM": "2026-01-03T13:55:13Z", "SE_ANNO_CAD_DATA": null, "GLOBALID": "{477D2D03-E066-1593-E063-792F520A6D48}", "CREATED": null, "EDITED": null, "OBJECTID": 10497 }, "geometry": { "type": "Point", "coordinates": [ -77.017161805343676, 38.877621504691113 ] } },
{ "type": "Feature", "properties": { "NAME": "NAI SATURN EASTERN LLC DBA SAFEWAY PHARMACY #2912", "LICENSE_NUMBER": "RX0000078", "FACTYPE": null, "ADDRESS": "1855 WISCONSIN AVE NW", "ADDRESSLINE2": null, "CITY": "Washington", "STATE": "DC", "ZIPCODE": "20007", "PHONE": "208-395-4303", "WARD": "Ward 2", "ANC": "ANC 2E", "SSL": "1299    1040,1299    0325,1299    7000", "SEASONAL": null, "H1N1": null, "XCOORD": 394165.74, "YCOORD": 138703.58, "MAR_ID": "224665", "GIS_ID": null, "GIS_LAST_MOD_DTTM": "2026-01-03T13:55:13Z", "SE_ANNO_CAD_DATA": null, "GLOBALID": "{477D2D03-E067-1593-E063-792F520A6D48}", "CREATED": null, "EDITED": null, "OBJECTID": 10498 }, "geometry": { "type": "Point", "coordinates": [ -77.067276044983032, 38.916187937155989 ] } },
{ "type": "Feature", "properties": { "NAME": "NAI SATURN EASTERN LLC DBA SAFEWAY PHARMACY #4202", "LICENSE_NUMBER": "RX0000079", "FACTYPE": null, "ADDRESS": "1747 COLUMBIA RD NW", "ADDRESSLINE2": null, "CITY": "Washington", "STATE": "DC", "ZIPCODE": "20009", "PHONE": "208-395-4303", "WARD": "Ward 1", "ANC": "ANC 1C", "SSL": "2580    0512", "SEASONAL": null, "H1N1": null, "XCOORD": 396443.13, "YCOORD": 139595.56, "MAR_ID": "284083", "GIS_ID": null, "GIS_LAST_MOD_DTTM": "2026-01-03T13:55:13Z", "SE_ANNO_CAD_DATA": null, "GLOBALID": "{477D2D03-E068-1593-E063-792F520A6D48}", "CREATED": null, "EDITED": null, "OBJECTID": 10499 }, "geometry": { "type": "Point", "coordinates": [ -77.041020513579028, 38.924235352774659 ] } },
{ "type": "Feature", "properties": { "NAME": "NAI SATURN EASTERN LLC DBA SAFEWAY PHARMACY #4270", "LICENSE_NUMBER": "RX0000081", "FACTYPE": null, "ADDRESS": "1601 MARYLAND AVE NE", "ADDRESSLINE2": null, "CITY": "Washington", "STATE": "DC", "ZIPCODE": "20002", "PHONE": "208-395-4303", "WARD": "Ward 5", "ANC": "ANC 5D", "SSL": "4493    0001", "SEASONAL": null, "H1N1": null, "XCOORD": 401736.87, "YCOORD": 136972.96, "MAR_ID": "297814", "GIS_ID": null, "GIS_LAST_MOD_DTTM": "2026-01-03T13:55:13Z", "SE_ANNO_CAD_DATA": null, "GLOBALID": "{477D2D03-E069-1593-E063-792F520A6D48}", "CREATED": null, "EDITED": null, "OBJECTID": 10500 }, "geometry": { "type": "Point", "coordinates": [ -76.979979134285401, 38.900615565245971 ] } },
{ "type": "Feature", "properties": { "NAME": "NAI SATURN EASTERN LLC DBA SAFEWAY PHARMACY #4832", "LICENSE_NUMBER": "RX0000082", "FACTYPE": null, "ADDRESS": "5545 CONNECTICUT AVE NW", "ADDRESSLINE2": null, "CITY": "Washington", "STATE": "DC", "ZIPCODE": "20015", "PHONE": "208-395-4303", "WARD": "Ward 3", "ANC": "ANC 3/4G", "SSL": "1867    0092", "SEASONAL": null, "H1N1": null, "XCOORD": 393508.82, "YCOORD": 144079.92, "MAR_ID": "263999", "GIS_ID": null, "GIS_LAST_MOD_DTTM": "2026-01-03T13:55:13Z", "SE_ANNO_CAD_DATA": null, "GLOBALID": "{477D2D03-E06A-1593-E063-792F520A6D48}", "CREATED": null, "EDITED": null, "OBJECTID": 10501 }, "geometry": { "type": "Point", "coordinates": [ -77.074901730150188, 38.964614957907074 ] } },
{ "type": "Feature", "properties": { "NAME": "NORTH CAPITOL PHARMACY", "LICENSE_NUMBER": "RX0000110", "FACTYPE": null, "ADDRESS": "1516 NORTH CAPITOL ST NW", "ADDRESSLINE2": null, "CITY": "Washington", "STATE": "DC", "ZIPCODE": "20002", "PHONE": "571-309-2816", "WARD": "Ward 5", "ANC": "ANC 5E", "SSL": "0615    0833,0615    0085", "SEASONAL": null, "H1N1": null, "XCOORD": 399188.58, "YCOORD": 138031.63, "MAR_ID": "242908", "GIS_ID": null, "GIS_LAST_MOD_DTTM": "2026-01-03T13:55:13Z", "SE_ANNO_CAD_DATA": null, "GLOBALID": "{477D2D03-E06B-1593-E063-792F520A6D48}", "CREATED": null, "EDITED": null, "OBJECTID": 10502 }, "geometry": { "type": "Point", "coordinates": [ -77.009357823966766, 38.910153777065744 ] } },
{ "type": "Feature", "properties": { "NAME": "PHARM-PRO, INC. T/A MORGAN PHARMACY", "LICENSE_NUMBER": "RX2200168", "FACTYPE": null, "ADDRESS": "3001 P ST NW", "ADDRESSLINE2": null, "CITY": "Washington", "STATE": "DC", "ZIPCODE": "20007", "PHONE": "202-337-4100", "WARD": "Ward 2", "ANC": "ANC 2E", "SSL": "1269    0290", "SEASONAL": null, "H1N1": null, "XCOORD": 394850.21, "YCOORD": 137957.81, "MAR_ID": "223835", "GIS_ID": null, "GIS_LAST_MOD_DTTM": "2026-01-03T13:55:13Z", "SE_ANNO_CAD_DATA": null, "GLOBALID": "{477D2D03-E06C-1593-E063-792F520A6D48}", "CREATED": null, "EDITED": null, "OBJECTID": 10503 }, "geometry": { "type": "Point", "coordinates": [ -77.059377958284145, 38.909474066983748 ] } },
{ "type": "Feature", "properties": { "NAME": "RAMDASS PHARMACY", "LICENSE_NUMBER": "RX1700119", "FACTYPE": null, "ADDRESS": "475 INGRAHAM STREET NE", "ADDRESSLINE2": null, "CITY": "Washington", "STATE": "DC", "ZIPCODE": "20011", "PHONE": "240-464-8218", "WARD": "Ward 5", "ANC": "ANC 5A", "SSL": "3765    0005", "SEASONAL": null, "H1N1": null, "XCOORD": 400083.27, "YCOORD": 142874.82, "MAR_ID": "314562", "GIS_ID": null, "GIS_LAST_MOD_DTTM": "2026-01-03T13:55:13Z", "SE_ANNO_CAD_DATA": null, "GLOBALID": "{477D2D03-E06D-1593-E063-792F520A6D48}", "CREATED": null, "EDITED": null, "OBJECTID": 10504 }, "geometry": { "type": "Point", "coordinates": [ -76.999041609702061, 38.953783090886226 ] } },
{ "type": "Feature", "properties": { "NAME": "RELIANCE PHARMACY", "LICENSE_NUMBER": "RX0000083", "FACTYPE": null, "ADDRESS": "4047 MINNESOTA AVE NE", "ADDRESSLINE2": null, "CITY": "Washington", "STATE": "DC", "ZIPCODE": "20019", "PHONE": "202-398-2800", "WARD": "Ward 7", "ANC": "ANC 7F", "SSL": "5080    0049", "SEASONAL": null, "H1N1": null, "XCOORD": 404538.29, "YCOORD": 136464.76, "MAR_ID": "288078", "GIS_ID": null, "GIS_LAST_MOD_DTTM": "2026-01-03T13:55:13Z", "SE_ANNO_CAD_DATA": null, "GLOBALID": "{477D2D03-E06E-1593-E063-792F520A6D48}", "CREATED": null, "EDITED": null, "OBJECTID": 10505 }, "geometry": { "type": "Point", "coordinates": [ -76.947686900911435, 38.896027517868291 ] } },
{ "type": "Feature", "properties": { "NAME": "SIBLEY MEMORIAL HOSPITAL PHARMACY", "LICENSE_NUMBER": "RX8800082", "FACTYPE": null, "ADDRESS": "5255 LOUGHBORO RD NW", "ADDRESSLINE2": null, "CITY": "Washington", "STATE": "DC", "ZIPCODE": "20016", "PHONE": "202-537-4171", "WARD": "Ward 3", "ANC": "ANC 3D", "SSL": "1448N   0806,1448N   0026", "SEASONAL": null, "H1N1": null, "XCOORD": 390564.57, "YCOORD": 140924.9, "MAR_ID": "295156", "GIS_ID": null, "GIS_LAST_MOD_DTTM": "2026-01-03T13:55:13Z", "SE_ANNO_CAD_DATA": null, "GLOBALID": "{477D2D03-E06F-1593-E063-792F520A6D48}", "CREATED": null, "EDITED": null, "OBJECTID": 10506 }, "geometry": { "type": "Point", "coordinates": [ -77.108830966867274, 38.936166991626109 ] } },
{ "type": "Feature", "properties": { "NAME": "ST ELIZABETH HOSPITAL PHARMACY", "LICENSE_NUMBER": "RX1000422", "FACTYPE": null, "ADDRESS": "1100 ALABAMA AVE SE", "ADDRESSLINE2": "ROOM 113", "CITY": "Washington", "STATE": "DC", "ZIPCODE": "20032", "PHONE": "202-299-5160", "WARD": "Ward 8", "ANC": "ANC 8C", "SSL": "5868S   0805,5868S   0002", "SEASONAL": null, "H1N1": null, "XCOORD": 401006.51, "YCOORD": 131162.45, "MAR_ID": "307946", "GIS_ID": null, "GIS_LAST_MOD_DTTM": "2026-01-03T13:55:13Z", "SE_ANNO_CAD_DATA": null, "GLOBALID": "{477D2D03-E070-1593-E063-792F520A6D48}", "CREATED": null, "EDITED": null, "OBJECTID": 10507 }, "geometry": { "type": "Point", "coordinates": [ -76.988407444326967, 38.848273304936384 ] } },
{ "type": "Feature", "properties": { "NAME": "STATE PHARMACY INC", "LICENSE_NUMBER": "RX0300330", "FACTYPE": null, "ADDRESS": "2041 MARTIN LUTHER KING JR AVE SE", "ADDRESSLINE2": "SUITE 100", "CITY": "Washington", "STATE": "DC", "ZIPCODE": "20020", "PHONE": "301-437-6905", "WARD": "Ward 8", "ANC": "ANC 8A", "SSL": "5772    1019", "SEASONAL": null, "H1N1": null, "XCOORD": 400882.92, "YCOORD": 133122.47, "MAR_ID": "278056", "GIS_ID": null, "GIS_LAST_MOD_DTTM": "2026-01-03T13:55:13Z", "SE_ANNO_CAD_DATA": null, "GLOBALID": "{477D2D03-E071-1593-E063-792F520A6D48}", "CREATED": null, "EDITED": null, "OBJECTID": 10508 }, "geometry": { "type": "Point", "coordinates": [ -76.98982866632619, 38.865930134482376 ] } },
{ "type": "Feature", "properties": { "NAME": "SUPER PHARMACY LLC", "LICENSE_NUMBER": "RX9500254", "FACTYPE": null, "ADDRESS": "1019 H ST NE", "ADDRESSLINE2": null, "CITY": "Washington", "STATE": "DC", "ZIPCODE": "20002", "PHONE": "202-388-0050", "WARD": "Ward 6", "ANC": "ANC 6A", "SSL": "0959    0020", "SEASONAL": null, "H1N1": null, "XCOORD": 400700.24, "YCOORD": 136903.11, "MAR_ID": "75505", "GIS_ID": null, "GIS_LAST_MOD_DTTM": "2026-01-03T13:55:13Z", "SE_ANNO_CAD_DATA": null, "GLOBALID": "{477D2D03-E072-1593-E063-792F520A6D48}", "CREATED": null, "EDITED": null, "OBJECTID": 10509 }, "geometry": { "type": "Point", "coordinates": [ -76.991929781524775, 38.89998776789313 ] } },
{ "type": "Feature", "properties": { "NAME": "SMOKE TEST SPECIALTY RX", "LICENSE_NUMBER": "RX250000131", "FACTYPE": null, "ADDRESS": "899 NORTH CAPITAL STREET NE", "ADDRESSLINE2": null, "CITY": "Washington", "STATE": "DC", "ZIPCODE": "20002", "PHONE": "222-222-2222", "WARD": "Ward 6", "ANC": "ANC 6E", "SSL": "0675    0855,0675    0298", "SEASONAL": null, "H1N1": null, "XCOORD": 399268.32, "YCOORD": 137017.59, "MAR_ID": "308942", "GIS_ID": null, "GIS_LAST_MOD_DTTM": "2026-01-03T13:55:13Z", "SE_ANNO_CAD_DATA": null, "GLOBALID": "{477D2D03-E073-1593-E063-792F520A6D48}", "CREATED": null, "EDITED": null, "OBJECTID": 10510 }, "geometry": { "type": "Point", "coordinates": [ -77.00843735394831, 38.90101901865976 ] } },
{ "type": "Feature", "properties": { "NAME": "TRIPLE ALLIANCE PHARMACY", "LICENSE_NUMBER": "RX1300002", "FACTYPE": null, "ADDRESS": "1219 BRENTWOOD RD NE", "ADDRESSLINE2": null, "CITY": "Washington", "STATE": "DC", "ZIPCODE": "20018", "PHONE": "202-704-3350", "WARD": "Ward 5", "ANC": "ANC 5C", "SSL": "3942    0040", "SEASONAL": null, "H1N1": null, "XCOORD": 400928.04, "YCOORD": 139142.05, "MAR_ID": "307472", "GIS_ID": null, "GIS_LAST_MOD_DTTM": "2026-01-03T13:55:13Z", "SE_ANNO_CAD_DATA": null, "GLOBALID": "{477D2D03-E074-1593-E063-792F520A6D48}", "CREATED": null, "EDITED": null, "OBJECTID": 10511 }, "geometry": { "type": "Point", "coordinates": [ -76.989300634578001, 38.920156698265714 ] } },
{ "type": "Feature", "properties": { "NAME": "TSCHIFFELY PHARMACY", "LICENSE_NUMBER": "RX0900364", "FACTYPE": null, "ADDRESS": "2021 K ST NW", "ADDRESSLINE2": null, "CITY": "Washington", "STATE": "DC", "ZIPCODE": "20006", "PHONE": "703-339-1992", "WARD": "Ward 2", "ANC": "ANC 2A", "SSL": "0076    0083", "SEASONAL": null, "H1N1": null, "XCOORD": 396029.37, "YCOORD": 137227.38, "MAR_ID": "242500", "GIS_ID": null, "GIS_LAST_MOD_DTTM": "2026-01-03T13:55:13Z", "SE_ANNO_CAD_DATA": null, "GLOBALID": "{477D2D03-E075-1593-E063-792F520A6D48}", "CREATED": null, "EDITED": null, "OBJECTID": 10512 }, "geometry": { "type": "Point", "coordinates": [ -77.04577834431187, 38.902900216990126 ] } },
{ "type": "Feature", "properties": { "NAME": "UNITY HEALTH CARE INC DBA UNITY HEALTH PHARMACY", "LICENSE_NUMBER": "RX0000114", "FACTYPE": null, "ADDRESS": "3020 14 STREET NW", "ADDRESSLINE2": null, "CITY": "Washington", "STATE": "DC", "ZIPCODE": "20009", "PHONE": "806-324-5400", "WARD": "Ward 1", "ANC": "ANC 1A", "SSL": "2672    0719", "SEASONAL": null, "H1N1": null, "XCOORD": 397135.96, "YCOORD": 140032.89, "MAR_ID": "242939", "GIS_ID": null, "GIS_LAST_MOD_DTTM": "2026-01-03T13:55:13Z", "SE_ANNO_CAD_DATA": null, "GLOBALID": "{477D2D03-E076-1593-E063-792F520A6D48}", "CREATED": null, "EDITED": null, "OBJECTID": 10513 }, "geometry": { "type": "Point", "coordinates": [ -77.033032545196946, 38.928177491335894 ] } },
{ "type": "Feature", "properties": { "NAME": "UNITY HEALTH CARE PHARMACY CENTRAL DETENTION", "LICENSE_NUMBER": "RX0600346", "FACTYPE": null, "ADDRESS": "1901 D ST SE", "ADDRESSLINE2": null, "CITY": "Washington", "STATE": "DC", "ZIPCODE": "20003", "PHONE": "202-425-5043", "WARD": "Ward 7", "ANC": "ANC 7F", "SSL": "1112E   0826,1112E   0007,RES 00130000", "SEASONAL": null, "H1N1": null, "XCOORD": 402049.46, "YCOORD": 135066.23, "MAR_ID": "295133", "GIS_ID": null, "GIS_LAST_MOD_DTTM": "2026-01-03T13:55:13Z", "SE_ANNO_CAD_DATA": null, "GLOBALID": "{477D2D03-E077-1593-E063-792F520A6D48}", "CREATED": null, "EDITED": null, "OBJECTID": 10514 }, "geometry": { "type": "Point", "coordinates": [ -76.976381191450784, 38.883438357613379 ] } },
{ "type": "Feature", "properties": { "NAME": "UNITY HEALTH CARE, INC. DBA UNITY HEALTH PHARMACY", "LICENSE_NUMBER": "RX1900139", "FACTYPE": null, "ADDRESS": "4414 BENNING ROAD, NE", "ADDRESSLINE2": "SUITE 100", "CITY": "Washington", "STATE": "DC", "ZIPCODE": "20019", "PHONE": "806-324-5400", "WARD": "Ward 7", "ANC": "ANC 7F", "SSL": "5139    0026", "SEASONAL": null, "H1N1": null, "XCOORD": 405336.17, "YCOORD": 135949.71, "MAR_ID": "288206", "GIS_ID": null, "GIS_LAST_MOD_DTTM": "2026-01-03T13:55:13Z", "SE_ANNO_CAD_DATA": null, "GLOBALID": "{477D2D03-E078-1593-E063-792F520A6D48}", "CREATED": null, "EDITED": null, "OBJECTID": 10515 }, "geometry": { "type": "Point", "coordinates": [ -76.938493298984184, 38.891383276957157 ] } },
{ "type": "Feature", "properties": { "NAME": "UNITY HEALTH CARE, INC. DBA UNITY HEALTH PHARMACY", "LICENSE_NUMBER": "RX230000118", "FACTYPE": null, "ADDRESS": "3020 14TH STREET, NW", "ADDRESSLINE2": null, "CITY": "Washington", "STATE": "DC", "ZIPCODE": "20009", "PHONE": "806-324-5400", "WARD": "Ward 1", "ANC": "ANC 1A", "SSL": "2672    0719", "SEASONAL": null, "H1N1": null, "XCOORD": 397135.96, "YCOORD": 140032.89, "MAR_ID": "242939", "GIS_ID": null, "GIS_LAST_MOD_DTTM": "2026-01-03T13:55:13Z", "SE_ANNO_CAD_DATA": null, "GLOBALID": "{477D2D03-E079-1593-E063-792F520A6D48}", "CREATED": null, "EDITED": null, "OBJECTID": 10516 }, "geometry": { "type": "Point", "coordinates": [ -77.033032545196946, 38.928177491335894 ] } },
{ "type": "Feature", "properties": { "NAME": "VAN NESS PHARMACY LLC DBA: PILL PLUS PHARMACY", "LICENSE_NUMBER": "RX250000150", "FACTYPE": null, "ADDRESS": "4215 CONNECTICUT AVE NW", "ADDRESSLINE2": "STE 1", "CITY": "Washington", "STATE": "DC", "ZIPCODE": "20008", "PHONE": "202-244-7979", "WARD": "Ward 3", "ANC": "ANC 3F", "SSL": "2051    0808,2051    0002", "SEASONAL": null, "H1N1": null, "XCOORD": 394552.16, "YCOORD": 141751.32, "MAR_ID": "221313", "GIS_ID": null, "GIS_LAST_MOD_DTTM": "2026-01-03T13:55:13Z", "SE_ANNO_CAD_DATA": null, "GLOBALID": "{477D2D03-E07A-1593-E063-792F520A6D48}", "CREATED": null, "EDITED": null, "OBJECTID": 10517 }, "geometry": { "type": "Point", "coordinates": [ -77.062844503473855, 38.943645400012514 ] } },
{ "type": "Feature", "properties": { "NAME": "VELIMA PHARMACY, INC.", "LICENSE_NUMBER": "RX2000154", "FACTYPE": null, "ADDRESS": "4514 BENNING ROAD, SE", "ADDRESSLINE2": "4514 BENNING ROAD, SE", "CITY": "Washington", "STATE": "DC", "ZIPCODE": "20019", "PHONE": "202-800-6500", "WARD": "Ward 7", "ANC": "ANC 7E", "SSL": "5346    0011", "SEASONAL": null, "H1N1": null, "XCOORD": 405490.12, "YCOORD": 135725.73, "MAR_ID": "278507", "GIS_ID": null, "GIS_LAST_MOD_DTTM": "2026-01-03T13:55:13Z", "SE_ANNO_CAD_DATA": null, "GLOBALID": "{477D2D03-E07B-1593-E063-792F520A6D48}", "CREATED": null, "EDITED": null, "OBJECTID": 10518 }, "geometry": { "type": "Point", "coordinates": [ -76.936720537694569, 38.889364633606242 ] } },
{ "type": "Feature", "properties": { "NAME": "WAL-MART 10-5968", "LICENSE_NUMBER": "RX0000054", "FACTYPE": null, "ADDRESS": "5929 GEORGIA AVE NW", "ADDRESSLINE2": null, "CITY": "Washington", "STATE": "DC", "ZIPCODE": "20011", "PHONE": "870-350-2408", "WARD": "Ward 4", "ANC": "ANC 4B", "SSL": "2986    0039", "SEASONAL": null, "H1N1": null, "XCOORD": 397632.7, "YCOORD": 143781.75, "MAR_ID": "254296", "GIS_ID": null, "GIS_LAST_MOD_DTTM": "2026-01-03T13:55:13Z", "SE_ANNO_CAD_DATA": null, "GLOBALID": "{477D2D03-E07C-1593-E063-792F520A6D48}", "CREATED": null, "EDITED": null, "OBJECTID": 10519 }, "geometry": { "type": "Point", "coordinates": [ -77.027316705185754, 38.961949766764342 ] } },
{ "type": "Feature", "properties": { "NAME": "WALMART PHARMACY 10-3035", "LICENSE_NUMBER": "RX0000095", "FACTYPE": null, "ADDRESS": "310 RIGGS RD N.E.", "ADDRESSLINE2": null, "CITY": "Washington", "STATE": "DC", "ZIPCODE": "20011", "PHONE": "870-350-2408", "WARD": "Ward 4", "ANC": "ANC 4B", "SSL": "3748    0808,3748    0052", "SEASONAL": null, "H1N1": null, "XCOORD": 399820.57, "YCOORD": 143354.21, "MAR_ID": "311574", "GIS_ID": null, "GIS_LAST_MOD_DTTM": "2026-01-03T13:55:13Z", "SE_ANNO_CAD_DATA": null, "GLOBALID": "{477D2D03-E07D-1593-E063-792F520A6D48}", "CREATED": null, "EDITED": null, "OBJECTID": 10520 }, "geometry": { "type": "Point", "coordinates": [ -77.002072477311813, 38.958101548903414 ] } },
{ "type": "Feature", "properties": { "NAME": "WHITMAN-WALKER CLINIC PHARMACY", "LICENSE_NUMBER": "RX0000093", "FACTYPE": null, "ADDRESS": "1525 14TH STREET NW", "ADDRESSLINE2": null, "CITY": "Washington", "STATE": "DC", "ZIPCODE": "20005", "PHONE": "806-324-5400", "WARD": "Ward 2", "ANC": "ANC 2F", "SSL": "0241    0129", "SEASONAL": null, "H1N1": null, "XCOORD": 397256.54, "YCOORD": 138068.59, "MAR_ID": "300332", "GIS_ID": null, "GIS_LAST_MOD_DTTM": "2026-01-03T13:55:13Z", "SE_ANNO_CAD_DATA": null, "GLOBALID": "{477D2D03-E07E-1593-E063-792F520A6D48}", "CREATED": null, "EDITED": null, "OBJECTID": 10521 }, "geometry": { "type": "Point", "coordinates": [ -77.031634075509288, 38.910482817415144 ] } },
{ "type": "Feature", "properties": { "NAME": "WHITMAN-WALKER CLINIC, INC. DBA WHITMAN-WALKER PHARMACY", "LICENSE_NUMBER": "RX230000119", "FACTYPE": null, "ADDRESS": "1201 SYCAMORE DRIVE SE", "ADDRESSLINE2": null, "CITY": "Washington", "STATE": "DC", "ZIPCODE": "20032", "PHONE": "866-724-1805", "WARD": "Ward 8", "ANC": "ANC 8C", "SSL": "5868S   0965", "SEASONAL": null, "H1N1": null, "XCOORD": 400858.51, "YCOORD": 130768.54, "MAR_ID": "334942", "GIS_ID": null, "GIS_LAST_MOD_DTTM": "2026-01-03T13:55:13Z", "SE_ANNO_CAD_DATA": null, "GLOBALID": "{477D2D03-E07F-1593-E063-792F520A6D48}", "CREATED": null, "EDITED": null, "OBJECTID": 10522 }, "geometry": { "type": "Point", "coordinates": [ -76.990112872280008, 38.844724946126618 ] } }
]
}
